[
	{
		"City": "108 Mile Ranch",
		"country": "Canada",
		"META_IATA": "",
		"IATA": "ZMH",
		"ICAO": "CZML",
		"latitude": "51.736099243199995",
		"longitude": "-121.333000183"
	},
	{
		"City": "Aachen",
		"country": "Germany",
		"META_IATA": "",
		"IATA": "AAH",
		"ICAO": "EDKA",
		"latitude": "50.823055267333984",
		"longitude": "6.186388969421387"
	},
	{
		"City": "Aalborg",
		"country": "Denmark",
		"META_IATA": "",
		"IATA": "AAL",
		"ICAO": "EKYT",
		"latitude": "57.0927589138",
		"longitude": "9.84924316406"
	},
	{
		"City": "Aalen-heidenheim",
		"country": "Germany",
		"META_IATA": "",
		"IATA": "\\N",
		"ICAO": "EDPA",
		"latitude": "48.77777862548828",
		"longitude": "10.264721870422363"
	},
	{
		"City": "Aappilattoq",
		"country": "Greenland",
		"META_IATA": "",
		"IATA": "\\N",
		"ICAO": "BGAG",
		"latitude": "72.8870298223",
		"longitude": "-55.5962866545"
	},
	{
		"City": "Aappilattoq",
		"country": "Greenland",
		"META_IATA": "",
		"IATA": "\\N",
		"ICAO": "BGAQ",
		"latitude": "60.148357",
		"longitude": "-44.286916"
	},
	{
		"City": "Aarhus",
		"country": "Denmark",
		"META_IATA": "",
		"IATA": "AAR",
		"ICAO": "EKAH",
		"latitude": "56.2999992371",
		"longitude": "10.619000434899998"
	},
	{
		"City": "Aarhus",
		"country": "Denmark",
		"META_IATA": "",
		"IATA": "\\N",
		"ICAO": "EKAC",
		"latitude": "56.151717",
		"longitude": "10.248428"
	},
	{
		"City": "Aasiaat",
		"country": "Greenland",
		"META_IATA": "",
		"IATA": "JEG",
		"ICAO": "BGAA",
		"latitude": "68.7218017578",
		"longitude": "-52.7846984863"
	},
	{
		"City": "Abadan",
		"country": "Iran",
		"META_IATA": "",
		"IATA": "ABD",
		"ICAO": "OIAA",
		"latitude": "30.371099472",
		"longitude": "48.2282981873"
	},
	{
		"City": "Abaiang Atoll",
		"country": "Kiribati",
		"META_IATA": "",
		"IATA": "ABF",
		"ICAO": "NGAB",
		"latitude": "1.798609972000122",
		"longitude": "173.04100036621094"
	},
	{
		"City": "Abakan",
		"country": "Russia",
		"META_IATA": "",
		"IATA": "ABA",
		"ICAO": "UNAA",
		"latitude": "53.7400016784668",
		"longitude": "91.38500213623047"
	},
	{
		"City": "Abbeville",
		"country": "France",
		"META_IATA": "",
		"IATA": "XAB",
		"ICAO": "LFOI",
		"latitude": "50.143501",
		"longitude": "1.831891"
	},
	{
		"City": "Abbotsford",
		"country": "Canada",
		"META_IATA": "",
		"IATA": "YXX",
		"ICAO": "CYXX",
		"latitude": "49.025299072265625",
		"longitude": "-122.36100006103516"
	},
	{
		"City": "Abe-ali",
		"country": "Iran",
		"META_IATA": "",
		"IATA": "\\N",
		"ICAO": "OIIA",
		"latitude": "35.95209884643555",
		"longitude": "50.450801849365234"
	},
	{
		"City": "Abeche",
		"country": "Chad",
		"META_IATA": "",
		"IATA": "AEH",
		"ICAO": "FTTC",
		"latitude": "13.847000122070312",
		"longitude": "20.84429931640625"
	},
	{
		"City": "Abemama",
		"country": "Kiribati",
		"META_IATA": "",
		"IATA": "AEA",
		"ICAO": "NGTB",
		"latitude": "0.49083301424980164",
		"longitude": "173.82899475097656"
	},
	{
		"City": "Aberdeen",
		"country": "United Kingdom",
		"META_IATA": "",
		"IATA": "ABZ",
		"ICAO": "EGPD",
		"latitude": "57.201900482177734",
		"longitude": "-2.197779893875122"
	},
	{
		"City": "Aberdeen",
		"country": "United States",
		"META_IATA": "",
		"IATA": "APG",
		"ICAO": "KAPG",
		"latitude": "39.466202",
		"longitude": "-76.1688"
	},
	{
		"City": "Aberdeen",
		"country": "United States",
		"META_IATA": "",
		"IATA": "ABR",
		"ICAO": "KABR",
		"latitude": "45.449100494384766",
		"longitude": "-98.42179870605469"
	},
	{
		"City": "Abha",
		"country": "Saudi Arabia",
		"META_IATA": "",
		"IATA": "AHB",
		"ICAO": "OEAB",
		"latitude": "18.240400314299997",
		"longitude": "42.65660095210001"
	},
	{
		"City": "Abidjan",
		"country": "Cote d'Ivoire",
		"META_IATA": "",
		"IATA": "ABJ",
		"ICAO": "DIAP",
		"latitude": "5.261390209197998",
		"longitude": "-3.9262900352478027"
	},
	{
		"City": "Abilene",
		"country": "United States",
		"META_IATA": "",
		"IATA": "DYS",
		"ICAO": "KDYS",
		"latitude": "32.4207992554",
		"longitude": "-99.854598999"
	},
	{
		"City": "Abilene",
		"country": "United States",
		"META_IATA": "",
		"IATA": "ABI",
		"ICAO": "KABI",
		"latitude": "32.4113006592",
		"longitude": "-99.68190002440001"
	},
	{
		"City": "Ablow",
		"country": "Vanuatu",
		"META_IATA": "",
		"IATA": "MTV",
		"ICAO": "NVSA",
		"latitude": "-13.6660003662",
		"longitude": "167.712005615"
	},
	{
		"City": "Abqaiq",
		"country": "Saudi Arabia",
		"META_IATA": "",
		"IATA": "\\N",
		"ICAO": "OEBQ",
		"latitude": "25.911300659179688",
		"longitude": "49.59120178222656"
	},
	{
		"City": "Abu Dhabi",
		"country": "United Arab Emirates",
		"META_IATA": "",
		"IATA": "AUH",
		"ICAO": "OMAA",
		"latitude": "24.433000564575195",
		"longitude": "54.651100158691406"
	},
	{
		"City": "Abu Dhabi",
		"country": "United Arab Emirates",
		"META_IATA": "",
		"IATA": "AZI",
		"ICAO": "OMAD",
		"latitude": "24.428300857543945",
		"longitude": "54.458099365234375"
	},
	{
		"City": "Abu Dhabi",
		"country": "United Arab Emirates",
		"META_IATA": "",
		"IATA": "DHF",
		"ICAO": "OMAM",
		"latitude": "24.248199462900004",
		"longitude": "54.547698974599996"
	},
	{
		"City": "Abu Simbel",
		"country": "Egypt",
		"META_IATA": "",
		"IATA": "ABS",
		"ICAO": "HEBL",
		"latitude": "22.375999450699997",
		"longitude": "31.611700058"
	},
	{
		"City": "Abuja",
		"country": "Nigeria",
		"META_IATA": "",
		"IATA": "ABV",
		"ICAO": "DNAA",
		"latitude": "9.006790161132812",
		"longitude": "7.263169765472412"
	},
	{
		"City": "Abumusa I.",
		"country": "Iran",
		"META_IATA": "",
		"IATA": "AEU",
		"ICAO": "OIBA",
		"latitude": "25.8757",
		"longitude": "55.033001"
	},
	{
		"City": "Acandi",
		"country": "Colombia",
		"META_IATA": "",
		"IATA": "ACD",
		"ICAO": "SKAD",
		"latitude": "8.51667",
		"longitude": "-77.3"
	},
	{
		"City": "Acapulco",
		"country": "Mexico",
		"META_IATA": "",
		"IATA": "ACA",
		"ICAO": "MMAA",
		"latitude": "16.757099151611328",
		"longitude": "-99.75399780273438"
	},
	{
		"City": "Acarigua",
		"country": "Venezuela",
		"META_IATA": "",
		"IATA": "AGV",
		"ICAO": "SVAC",
		"latitude": "9.553375244140625",
		"longitude": "-69.23786926269531"
	},
	{
		"City": "Accra",
		"country": "Ghana",
		"META_IATA": "",
		"IATA": "ACC",
		"ICAO": "DGAA",
		"latitude": "5.605189800262451",
		"longitude": "0.16678600013256073"
	},
	{
		"City": "Achinsk",
		"country": "Russia",
		"META_IATA": "",
		"IATA": "ACS",
		"ICAO": "UNKS",
		"latitude": "56.2682991027832",
		"longitude": "90.57080078125"
	},
	{
		"City": "Ada",
		"country": "United States",
		"META_IATA": "",
		"IATA": "ADT",
		"ICAO": "KADH",
		"latitude": "34.804298",
		"longitude": "-96.671303"
	},
	{
		"City": "Adak Island",
		"country": "United States",
		"META_IATA": "",
		"IATA": "ADK",
		"ICAO": "PADK",
		"latitude": "51.87799835205078",
		"longitude": "-176.64599609375"
	},
	{
		"City": "Adamovka",
		"country": "Russia",
		"META_IATA": "",
		"IATA": "\\N",
		"ICAO": "UWOD",
		"latitude": "51.5",
		"longitude": "59.936111"
	},
	{
		"City": "Adampur",
		"country": "India",
		"META_IATA": "",
		"IATA": "AIP",
		"ICAO": "VIAX",
		"latitude": "31.4338",
		"longitude": "75.758797"
	},
	{
		"City": "Adana",
		"country": "Turkey",
		"META_IATA": "",
		"IATA": "ADA",
		"ICAO": "LTAF",
		"latitude": "36.9822006226",
		"longitude": "35.280399322499996"
	},
	{
		"City": "Adana",
		"country": "Turkey",
		"META_IATA": "",
		"IATA": "UAB",
		"ICAO": "LTAG",
		"latitude": "37.002101898199996",
		"longitude": "35.4258995056"
	},
	{
		"City": "Addis Ababa",
		"country": "Ethiopia",
		"META_IATA": "",
		"IATA": "ADD",
		"ICAO": "HAAB",
		"latitude": "8.97789001465",
		"longitude": "38.799301147499996"
	},
	{
		"City": "Addis Ababa",
		"country": "Ethiopia",
		"META_IATA": "",
		"IATA": "\\N",
		"ICAO": "HAAL",
		"latitude": "9.003685",
		"longitude": "38.725498"
	},
	{
		"City": "Addison",
		"country": "United States",
		"META_IATA": "",
		"IATA": "ADS",
		"ICAO": "KADS",
		"latitude": "32.9686012268",
		"longitude": "-96.8364028931"
	},
	{
		"City": "Adelaide",
		"country": "Australia",
		"META_IATA": "",
		"IATA": "ADL",
		"ICAO": "YPAD",
		"latitude": "-34.945",
		"longitude": "138.531006"
	},
	{
		"City": "Adelaide",
		"country": "Australia",
		"META_IATA": "",
		"IATA": "\\N",
		"ICAO": "YPPF",
		"latitude": "-34.793300628699996",
		"longitude": "138.632995605"
	},
	{
		"City": "Aden",
		"country": "Yemen",
		"META_IATA": "",
		"IATA": "ADE",
		"ICAO": "OYAA",
		"latitude": "12.829500198364258",
		"longitude": "45.02880096435547"
	},
	{
		"City": "Adiyaman",
		"country": "Turkey",
		"META_IATA": "",
		"IATA": "ADF",
		"ICAO": "LTCP",
		"latitude": "37.7313995361",
		"longitude": "38.4688987732"
	},
	{
		"City": "Adrar",
		"country": "Algeria",
		"META_IATA": "",
		"IATA": "AZR",
		"ICAO": "DAUA",
		"latitude": "27.837600708007812",
		"longitude": "0.18641400337219238"
	},
	{
		"City": "Aero",
		"country": "Denmark",
		"META_IATA": "",
		"IATA": "\\N",
		"ICAO": "EKAE",
		"latitude": "54.85279846191406",
		"longitude": "10.456399917602539"
	},
	{
		"City": "Afobaka",
		"country": "Suriname",
		"META_IATA": "",
		"IATA": "\\N",
		"ICAO": "SMAF",
		"latitude": "4.998505",
		"longitude": "-54.992033"
	},
	{
		"City": "Afutara",
		"country": "Solomon Islands",
		"META_IATA": "",
		"IATA": "AFT",
		"ICAO": "AGAF",
		"latitude": "-9.19138888889",
		"longitude": "160.948611111"
	},
	{
		"City": "Afyon",
		"country": "Turkey",
		"META_IATA": "",
		"IATA": "AFY",
		"ICAO": "LTAH",
		"latitude": "38.726398468",
		"longitude": "30.6011009216"
	},
	{
		"City": "Agadez",
		"country": "Niger",
		"META_IATA": "",
		"IATA": "AJY",
		"ICAO": "DRZA",
		"latitude": "16.965999603271484",
		"longitude": "8.000109672546387"
	},
	{
		"City": "Agadir",
		"country": "Morocco",
		"META_IATA": "",
		"IATA": "AGA",
		"ICAO": "GMAD",
		"latitude": "30.325000762939453",
		"longitude": "-9.413069725036621"
	},
	{
		"City": "Agana",
		"country": "Guam",
		"META_IATA": "",
		"IATA": "GUM",
		"ICAO": "PGUM",
		"latitude": "13.4834003448",
		"longitude": "144.796005249"
	},
	{
		"City": "Agartala",
		"country": "India",
		"META_IATA": "",
		"IATA": "IXA",
		"ICAO": "VEAT",
		"latitude": "23.8869991302",
		"longitude": "91.24040222170001"
	},
	{
		"City": "Agatti Island",
		"country": "India",
		"META_IATA": "",
		"IATA": "AGX",
		"ICAO": "VOAT",
		"latitude": "10.823699951171875",
		"longitude": "72.1760025024414"
	},
	{
		"City": "Agen",
		"country": "France",
		"META_IATA": "",
		"IATA": "AGF",
		"ICAO": "LFBA",
		"latitude": "44.17470169067383",
		"longitude": "0.5905560255050659"
	},
	{
		"City": "Aggeneys",
		"country": "South Africa",
		"META_IATA": "",
		"IATA": "AGZ",
		"ICAO": "FAAG",
		"latitude": "-29.28179931640625",
		"longitude": "18.813899993896484"
	},
	{
		"City": "Aghajari",
		"country": "Iran",
		"META_IATA": "",
		"IATA": "AKW",
		"ICAO": "OIAG",
		"latitude": "30.7444",
		"longitude": "49.6772"
	},
	{
		"City": "Agra",
		"country": "India",
		"META_IATA": "",
		"IATA": "AGR",
		"ICAO": "VIAG",
		"latitude": "27.155799865722656",
		"longitude": "77.96089935302734"
	},
	{
		"City": "Agri",
		"country": "Turkey",
		"META_IATA": "",
		"IATA": "AJI",
		"ICAO": "LTCO",
		"latitude": "39.654541015625",
		"longitude": "43.025978088378906"
	},
	{
		"City": "Agrinion",
		"country": "Greece",
		"META_IATA": "",
		"IATA": "AGQ",
		"ICAO": "LGAG",
		"latitude": "38.602001",
		"longitude": "21.3512001"
	},
	{
		"City": "Agua Boa",
		"country": "Brazil",
		"META_IATA": "",
		"IATA": "\\N",
		"ICAO": "SWHP",
		"latitude": "-14.019444",
		"longitude": "-52.152222"
	},
	{
		"City": "Aguachica",
		"country": "Colombia",
		"META_IATA": "",
		"IATA": "\\N",
		"ICAO": "SKAG",
		"latitude": "8.247",
		"longitude": "-73.5814"
	},
	{
		"City": "Aguadilla",
		"country": "Puerto Rico",
		"META_IATA": "",
		"IATA": "BQN",
		"ICAO": "TJBQ",
		"latitude": "18.49489974975586",
		"longitude": "-67.12940216064453"
	},
	{
		"City": "Aguas Calientes",
		"country": "Peru",
		"META_IATA": "",
		"IATA": "\\N",
		"ICAO": "SPAT",
		"latitude": "-8.833330154418945",
		"longitude": "-74.68329620361328"
	},
	{
		"City": "Aguascalientes",
		"country": "Mexico",
		"META_IATA": "",
		"IATA": "AGU",
		"ICAO": "MMAS",
		"latitude": "21.705601",
		"longitude": "-102.318001"
	},
	{
		"City": "Aguni",
		"country": "Japan",
		"META_IATA": "",
		"IATA": "AGJ",
		"ICAO": "RORA",
		"latitude": "26.5925006866",
		"longitude": "127.240997314"
	},
	{
		"City": "Ahe",
		"country": "French Polynesia",
		"META_IATA": "",
		"IATA": "AHE",
		"ICAO": "NTHE",
		"latitude": "-14.428099632263184",
		"longitude": "-146.2570037841797"
	},
	{
		"City": "Ahmed Al Jaber AB",
		"country": "Kuwait",
		"META_IATA": "",
		"IATA": "XIJ",
		"ICAO": "OKAJ",
		"latitude": "28.9347991943",
		"longitude": "47.791900634799994"
	},
	{
		"City": "Ahmedabad",
		"country": "India",
		"META_IATA": "",
		"IATA": "AMD",
		"ICAO": "VAAH",
		"latitude": "23.0771999359",
		"longitude": "72.63469696039999"
	},
	{
		"City": "Ahuas",
		"country": "Honduras",
		"META_IATA": "",
		"IATA": "AHS",
		"ICAO": "MHAH",
		"latitude": "15.4722",
		"longitude": "-84.352203"
	},
	{
		"City": "Ahwaz",
		"country": "Iran",
		"META_IATA": "",
		"IATA": "AWZ",
		"ICAO": "OIAW",
		"latitude": "31.337400436399996",
		"longitude": "48.7620010376"
	},
	{
		"City": "Aiken",
		"country": "United States",
		"META_IATA": "",
		"IATA": "AIK",
		"ICAO": "KAIK",
		"latitude": "33.649399",
		"longitude": "-81.684998"
	},
	{
		"City": "Ain Oussera",
		"country": "Algeria",
		"META_IATA": "",
		"IATA": "\\N",
		"ICAO": "DAAQ",
		"latitude": "35.52539825439453",
		"longitude": "2.8787100315093994"
	},
	{
		"City": "Aioun El Atrouss",
		"country": "Mauritania",
		"META_IATA": "",
		"IATA": "AEO",
		"ICAO": "GQNA",
		"latitude": "16.711299896240234",
		"longitude": "-9.637880325317383"
	},
	{
		"City": "Aire-sur-l'adour",
		"country": "France",
		"META_IATA": "",
		"IATA": "\\N",
		"ICAO": "LFDA",
		"latitude": "43.70940017700195",
		"longitude": "0.245278000831604"
	},
	{
		"City": "Airlie Beach",
		"country": "Australia",
		"META_IATA": "",
		"IATA": "WSY",
		"ICAO": "YWHI",
		"latitude": "-20.27611",
		"longitude": "148.755"
	},
	{
		"City": "Aitutaki",
		"country": "Cook Islands",
		"META_IATA": "",
		"IATA": "AIT",
		"ICAO": "NCAI",
		"latitude": "-18.830900192260742",
		"longitude": "-159.76400756835938"
	},
	{
		"City": "Aix-les-milles",
		"country": "France",
		"META_IATA": "",
		"IATA": "\\N",
		"ICAO": "LFMA",
		"latitude": "43.5056",
		"longitude": "5.36778"
	},
	{
		"City": "Aizwal",
		"country": "India",
		"META_IATA": "",
		"IATA": "AJL",
		"ICAO": "VELP",
		"latitude": "23.840599060099997",
		"longitude": "92.6196975708"
	},
	{
		"City": "Ajaccio",
		"country": "France",
		"META_IATA": "",
		"IATA": "AJA",
		"ICAO": "LFKJ",
		"latitude": "41.92359924316406",
		"longitude": "8.8029203414917"
	},
	{
		"City": "Ajaccio",
		"country": "France",
		"META_IATA": "",
		"IATA": "MFX",
		"ICAO": "LFKX",
		"latitude": "45.407003",
		"longitude": "6.577942"
	},
	{
		"City": "Ajmer",
		"country": "India",
		"META_IATA": "",
		"IATA": "KQH",
		"ICAO": "VIKG",
		"latitude": "26.601473",
		"longitude": "74.814147"
	},
	{
		"City": "Akeno",
		"country": "Japan",
		"META_IATA": "",
		"IATA": "\\N",
		"ICAO": "RJOE",
		"latitude": "34.53329849243164",
		"longitude": "136.6719970703125"
	},
	{
		"City": "Akhiok",
		"country": "United States",
		"META_IATA": "",
		"IATA": "AKK",
		"ICAO": "PAKH",
		"latitude": "56.9387016296",
		"longitude": "-154.182998657"
	},
	{
		"City": "Akhisar",
		"country": "Turkey",
		"META_IATA": "",
		"IATA": "\\N",
		"ICAO": "LTBT",
		"latitude": "38.80889892578125",
		"longitude": "27.833900451660156"
	},
	{
		"City": "Akiak",
		"country": "United States",
		"META_IATA": "",
		"IATA": "AKI",
		"ICAO": "PFAK",
		"latitude": "60.9029006958",
		"longitude": "-161.231002808"
	},
	{
		"City": "Akita",
		"country": "Japan",
		"META_IATA": "",
		"IATA": "AXT",
		"ICAO": "RJSK",
		"latitude": "39.6156005859375",
		"longitude": "140.218994140625"
	},
	{
		"City": "Aklavik",
		"country": "Canada",
		"META_IATA": "",
		"IATA": "LAK",
		"ICAO": "CYKD",
		"latitude": "68.223297",
		"longitude": "-135.00599"
	},
	{
		"City": "Akola",
		"country": "India",
		"META_IATA": "",
		"IATA": "AKD",
		"ICAO": "VAAK",
		"latitude": "20.698999",
		"longitude": "77.058601"
	},
	{
		"City": "Akron",
		"country": "United States",
		"META_IATA": "",
		"IATA": "AKC",
		"ICAO": "KAKR",
		"latitude": "41.0374984741",
		"longitude": "-81.4669036865"
	},
	{
		"City": "Akron",
		"country": "United States",
		"META_IATA": "",
		"IATA": "CAK",
		"ICAO": "KCAK",
		"latitude": "40.916099548339844",
		"longitude": "-81.44219970703125"
	},
	{
		"City": "Akron",
		"country": "United States",
		"META_IATA": "",
		"IATA": "AKO",
		"ICAO": "KAKO",
		"latitude": "40.1755981445",
		"longitude": "-103.222000122"
	},
	{
		"City": "Akrotiri",
		"country": "Cyprus",
		"META_IATA": "",
		"IATA": "AKT",
		"ICAO": "LCRA",
		"latitude": "34.590401",
		"longitude": "32.9879"
	},
	{
		"City": "Aksu",
		"country": "China",
		"META_IATA": "",
		"IATA": "AKU",
		"ICAO": "ZWAK",
		"latitude": "41.262501",
		"longitude": "80.291702"
	},
	{
		"City": "Aktau",
		"country": "Kazakhstan",
		"META_IATA": "",
		"IATA": "SCO",
		"ICAO": "UATE",
		"latitude": "43.8601",
		"longitude": "51.091999"
	},
	{
		"City": "Aktyubinsk",
		"country": "Kazakhstan",
		"META_IATA": "",
		"IATA": "AKX",
		"ICAO": "UATT",
		"latitude": "50.2458",
		"longitude": "57.206699"
	},
	{
		"City": "Akulivik",
		"country": "Canada",
		"META_IATA": "",
		"IATA": "AKV",
		"ICAO": "CYKO",
		"latitude": "60.818599700927734",
		"longitude": "-78.14859771728516"
	},
	{
		"City": "Akure",
		"country": "Nigeria",
		"META_IATA": "",
		"IATA": "AKR",
		"ICAO": "DNAK",
		"latitude": "7.246739864349365",
		"longitude": "5.3010101318359375"
	},
	{
		"City": "Akureyri",
		"country": "Iceland",
		"META_IATA": "",
		"IATA": "AEY",
		"ICAO": "BIAR",
		"latitude": "65.66000366210938",
		"longitude": "-18.07270050048828"
	},
	{
		"City": "Akutan",
		"country": "United States",
		"META_IATA": "",
		"IATA": "KQA",
		"ICAO": "KQA",
		"latitude": "54.1337704415",
		"longitude": "-165.778895617"
	},
	{
		"City": "Al Ain",
		"country": "United Arab Emirates",
		"META_IATA": "",
		"IATA": "AAN",
		"ICAO": "OMAL",
		"latitude": "24.261699676513672",
		"longitude": "55.60919952392578"
	},
	{
		"City": "Al Asad",
		"country": "Iraq",
		"META_IATA": "",
		"IATA": "IQA",
		"ICAO": "ORAA",
		"latitude": "33.7855987549",
		"longitude": "42.4412002563"
	},
	{
		"City": "Al Badie",
		"country": "Yemen",
		"META_IATA": "",
		"IATA": "\\N",
		"ICAO": "OYBA",
		"latitude": "18.71929931640625",
		"longitude": "50.83689880371094"
	},
	{
		"City": "Al Bakr",
		"country": "Iraq",
		"META_IATA": "",
		"IATA": "XQC",
		"ICAO": "ORBD",
		"latitude": "33.940200805699995",
		"longitude": "44.361598968500005"
	},
	{
		"City": "Al Bayda'",
		"country": "Libya",
		"META_IATA": "",
		"IATA": "LAQ",
		"ICAO": "HLLQ",
		"latitude": "32.788700103759766",
		"longitude": "21.96430015563965"
	},
	{
		"City": "Al Cut",
		"country": "Iraq",
		"META_IATA": "",
		"IATA": "\\N",
		"ICAO": "ORUB",
		"latitude": "32.481998443603516",
		"longitude": "45.75709915161133"
	},
	{
		"City": "Al Ghaidah Intl",
		"country": "Yemen",
		"META_IATA": "",
		"IATA": "AAY",
		"ICAO": "OYGD",
		"latitude": "16.191699981689453",
		"longitude": "52.17499923706055"
	},
	{
		"City": "Al Hamra",
		"country": "United Arab Emirates",
		"META_IATA": "",
		"IATA": "\\N",
		"ICAO": "OMAH",
		"latitude": "24.073999404907227",
		"longitude": "52.463600158691406"
	},
	{
		"City": "Al Hociema",
		"country": "Morocco",
		"META_IATA": "",
		"IATA": "AHU",
		"ICAO": "GMTA",
		"latitude": "35.177101135253906",
		"longitude": "-3.83951997756958"
	},
	{
		"City": "Al Kharj",
		"country": "Saudi Arabia",
		"META_IATA": "",
		"IATA": "AKH",
		"ICAO": "OEPS",
		"latitude": "24.062700271606445",
		"longitude": "47.580501556396484"
	},
	{
		"City": "Al Masna'ah",
		"country": "Oman",
		"META_IATA": "",
		"IATA": "MNH",
		"ICAO": "OORQ",
		"latitude": "23.640556",
		"longitude": "57.4875"
	},
	{
		"City": "Al Taqaddum",
		"country": "Iraq",
		"META_IATA": "",
		"IATA": "TQD",
		"ICAO": "ORAT",
		"latitude": "33.33810043335",
		"longitude": "43.597099304199"
	},
	{
		"City": "Alabaster",
		"country": "United States",
		"META_IATA": "",
		"IATA": "\\N",
		"ICAO": "KEET",
		"latitude": "33.17699814",
		"longitude": "-86.78279877"
	},
	{
		"City": "Al-ahsa",
		"country": "Saudi Arabia",
		"META_IATA": "",
		"IATA": "HOF",
		"ICAO": "OEAH",
		"latitude": "25.28529930114746",
		"longitude": "49.485198974609375"
	},
	{
		"City": "Alakanuk",
		"country": "United States",
		"META_IATA": "",
		"IATA": "AUK",
		"ICAO": "PAUK",
		"latitude": "62.680042266799994",
		"longitude": "-164.659927368"
	},
	{
		"City": "Alameda",
		"country": "United States",
		"META_IATA": "",
		"IATA": "NGZ",
		"ICAO": "KNGZ",
		"latitude": "37.78889846801758",
		"longitude": "-122.31999969482422"
	},
	{
		"City": "Alamogordo",
		"country": "United States",
		"META_IATA": "",
		"IATA": "HMN",
		"ICAO": "KHMN",
		"latitude": "32.8525009155",
		"longitude": "-106.107002258"
	},
	{
		"City": "Alamogordo",
		"country": "United States",
		"META_IATA": "",
		"IATA": "ALM",
		"ICAO": "KALM",
		"latitude": "32.8399009705",
		"longitude": "-105.990997314"
	},
	{
		"City": "Alamosa",
		"country": "United States",
		"META_IATA": "",
		"IATA": "ALS",
		"ICAO": "KALS",
		"latitude": "37.434898",
		"longitude": "-105.866997"
	},
	{
		"City": "Alanya",
		"country": "Turkey",
		"META_IATA": "",
		"IATA": "GZP",
		"ICAO": "LTGP",
		"latitude": "36.299217",
		"longitude": "32.300598"
	},
	{
		"City": "Alapadu",
		"country": "Suriname",
		"META_IATA": "",
		"IATA": "\\N",
		"ICAO": "SMDU",
		"latitude": "2.5235",
		"longitude": "-56.3247"
	},
	{
		"City": "Albacete",
		"country": "Spain",
		"META_IATA": "",
		"IATA": "ABC",
		"ICAO": "LEAB",
		"latitude": "38.9485015869",
		"longitude": "-1.8635200262099998"
	},
	{
		"City": "Albany",
		"country": "United States",
		"META_IATA": "",
		"IATA": "ALB",
		"ICAO": "KALB",
		"latitude": "42.74829864501953",
		"longitude": "-73.80169677734375"
	},
	{
		"City": "Albany",
		"country": "United States",
		"META_IATA": "",
		"IATA": "ABY",
		"ICAO": "KABY",
		"latitude": "31.535499572753906",
		"longitude": "-84.19450378417969"
	},
	{
		"City": "Albany",
		"country": "Australia",
		"META_IATA": "",
		"IATA": "ALH",
		"ICAO": "YABA",
		"latitude": "-34.94329833984375",
		"longitude": "117.80899810791016"
	},
	{
		"City": "Albemarle",
		"country": "United States",
		"META_IATA": "",
		"IATA": "\\N",
		"ICAO": "KVUJ",
		"latitude": "35.416698455811",
		"longitude": "-80.150802612305"
	},
	{
		"City": "Albenga",
		"country": "Italy",
		"META_IATA": "",
		"IATA": "ALL",
		"ICAO": "LIMG",
		"latitude": "44.050598",
		"longitude": "8.12743"
	},
	{
		"City": "Albert",
		"country": "France",
		"META_IATA": "",
		"IATA": "BYF",
		"ICAO": "LFAQ",
		"latitude": "49.9715003967",
		"longitude": "2.69765996933"
	},
	{
		"City": "Albi",
		"country": "France",
		"META_IATA": "",
		"IATA": "LBI",
		"ICAO": "LFCI",
		"latitude": "43.91389846801758",
		"longitude": "2.1130599975585938"
	},
	{
		"City": "Albina",
		"country": "Suriname",
		"META_IATA": "",
		"IATA": "ABN",
		"ICAO": "SMBN",
		"latitude": "5.512720108032227",
		"longitude": "-54.05009841918945"
	},
	{
		"City": "Albuquerque",
		"country": "United States",
		"META_IATA": "",
		"IATA": "ABQ",
		"ICAO": "KABQ",
		"latitude": "35.040199",
		"longitude": "-106.609001"
	},
	{
		"City": "Albuquerque",
		"country": "United States",
		"META_IATA": "",
		"IATA": "\\N",
		"ICAO": "KAEG",
		"latitude": "35.145198822021484",
		"longitude": "-106.79499816894531"
	},
	{
		"City": "Albury",
		"country": "Australia",
		"META_IATA": "",
		"IATA": "ABX",
		"ICAO": "YMAY",
		"latitude": "-36.06779861450195",
		"longitude": "146.95799255371094"
	},
	{
		"City": "Alcantara",
		"country": "Brazil",
		"META_IATA": "",
		"IATA": "\\N",
		"ICAO": "SNCW",
		"latitude": "-2.372999906539917",
		"longitude": "-44.396400451660156"
	},
	{
		"City": "Aldan",
		"country": "Russia",
		"META_IATA": "",
		"IATA": "ADH",
		"ICAO": "UEEA",
		"latitude": "58.60279846191406",
		"longitude": "125.40899658203125"
	},
	{
		"City": "Alderney",
		"country": "Guernsey",
		"META_IATA": "",
		"IATA": "ACI",
		"ICAO": "EGJA",
		"latitude": "49.706104",
		"longitude": "-2.21472"
	},
	{
		"City": "Aleknagik",
		"country": "United States",
		"META_IATA": "",
		"IATA": "WKK",
		"ICAO": "5A8",
		"latitude": "59.2826004028",
		"longitude": "-158.617996216"
	},
	{
		"City": "Aleppo",
		"country": "Syria",
		"META_IATA": "",
		"IATA": "ALP",
		"ICAO": "OSAP",
		"latitude": "36.18069839477539",
		"longitude": "37.22439956665039"
	},
	{
		"City": "Alert",
		"country": "Canada",
		"META_IATA": "",
		"IATA": "YLT",
		"ICAO": "CYLT",
		"latitude": "82.51779937740001",
		"longitude": "-62.2806015015"
	},
	{
		"City": "Alert Bay",
		"country": "Canada",
		"META_IATA": "",
		"IATA": "YAL",
		"ICAO": "CYAL",
		"latitude": "50.58219909667969",
		"longitude": "-126.91600036621094"
	},
	{
		"City": "Ales",
		"country": "France",
		"META_IATA": "",
		"IATA": "\\N",
		"ICAO": "LFMS",
		"latitude": "44.069698",
		"longitude": "4.14212"
	},
	{
		"City": "Alessandria",
		"country": "Italy",
		"META_IATA": "",
		"IATA": "\\N",
		"ICAO": "LILA",
		"latitude": "44.925201",
		"longitude": "8.62513"
	},
	{
		"City": "Alesund",
		"country": "Norway",
		"META_IATA": "",
		"IATA": "AES",
		"ICAO": "ENAL",
		"latitude": "62.5625",
		"longitude": "6.119699954986572"
	},
	{
		"City": "Alexander Bay",
		"country": "South Africa",
		"META_IATA": "",
		"IATA": "ALJ",
		"ICAO": "FAAB",
		"latitude": "-28.575001",
		"longitude": "16.5333"
	},
	{
		"City": "Alexander City",
		"country": "United States",
		"META_IATA": "",
		"IATA": "ALX",
		"ICAO": "KALX",
		"latitude": "32.914699554399995",
		"longitude": "-85.9629974365"
	},
	{
		"City": "Alexandra",
		"country": "New Zealand",
		"META_IATA": "",
		"IATA": "ALR",
		"ICAO": "NZLX",
		"latitude": "-45.211700439453125",
		"longitude": "169.3730010986328"
	},
	{
		"City": "Alexandria",
		"country": "Egypt",
		"META_IATA": "",
		"IATA": "ALY",
		"ICAO": "HEAX",
		"latitude": "31.183900833129883",
		"longitude": "29.94890022277832"
	},
	{
		"City": "Alexandria",
		"country": "Greece",
		"META_IATA": "",
		"IATA": "\\N",
		"ICAO": "LGAX",
		"latitude": "40.651100158691406",
		"longitude": "22.48870086669922"
	},
	{
		"City": "Alexandria",
		"country": "Egypt",
		"META_IATA": "",
		"IATA": "HBE",
		"ICAO": "HEBA",
		"latitude": "30.917699813842773",
		"longitude": "29.696399688720703"
	},
	{
		"City": "Alexandria",
		"country": "United States",
		"META_IATA": "",
		"IATA": "ESF",
		"ICAO": "KESF",
		"latitude": "31.3948993683",
		"longitude": "-92.2957992554"
	},
	{
		"City": "Alexandria",
		"country": "United States",
		"META_IATA": "",
		"IATA": "AEX",
		"ICAO": "KAEX",
		"latitude": "31.32740020751953",
		"longitude": "-92.54979705810547"
	},
	{
		"City": "Alexandria",
		"country": "United States",
		"META_IATA": "",
		"IATA": "AXN",
		"ICAO": "KAXN",
		"latitude": "45.8662986755",
		"longitude": "-95.39469909670001"
	},
	{
		"City": "Alexandroupolis",
		"country": "Greece",
		"META_IATA": "",
		"IATA": "AXD",
		"ICAO": "LGAL",
		"latitude": "40.855899810791016",
		"longitude": "25.956300735473633"
	},
	{
		"City": "Algeciras",
		"country": "Spain",
		"META_IATA": "",
		"IATA": "AEI",
		"ICAO": "LEAG",
		"latitude": "36.12888",
		"longitude": "-5.441118"
	},
	{
		"City": "Alghero",
		"country": "Italy",
		"META_IATA": "",
		"IATA": "AHO",
		"ICAO": "LIEA",
		"latitude": "40.632099",
		"longitude": "8.29077"
	},
	{
		"City": "Algier",
		"country": "Algeria",
		"META_IATA": "",
		"IATA": "ALG",
		"ICAO": "DAAG",
		"latitude": "36.691001892089844",
		"longitude": "3.215409994125366"
	},
	{
		"City": "Alicante",
		"country": "Spain",
		"META_IATA": "",
		"IATA": "ALC",
		"ICAO": "LEAL",
		"latitude": "38.28219985961914",
		"longitude": "0.5581560134887695"
	},
	{
		"City": "Alice",
		"country": "United States",
		"META_IATA": "",
		"IATA": "ALI",
		"ICAO": "KALI",
		"latitude": "27.740900039699998",
		"longitude": "-98.02690124510002"
	},
	{
		"City": "Alice Springs",
		"country": "Australia",
		"META_IATA": "",
		"IATA": "ASP",
		"ICAO": "YBAS",
		"latitude": "-23.806699752807617",
		"longitude": "133.90199279785156"
	},
	{
		"City": "Alice Town",
		"country": "Bahamas",
		"META_IATA": "",
		"IATA": "BIM",
		"ICAO": "MYBS",
		"latitude": "25.6998996735",
		"longitude": "-79.2647018433"
	},
	{
		"City": "Ali-Curung",
		"country": "Australia",
		"META_IATA": "",
		"IATA": "\\N",
		"ICAO": "YWBI",
		"latitude": "-21",
		"longitude": "134.39700317382812"
	},
	{
		"City": "Aliwal North",
		"country": "South Africa",
		"META_IATA": "",
		"IATA": "\\N",
		"ICAO": "FAAN",
		"latitude": "-30.68000030517578",
		"longitude": "26.729999542236328"
	},
	{
		"City": "Al-Jawf",
		"country": "Saudi Arabia",
		"META_IATA": "",
		"IATA": "AJF",
		"ICAO": "OESK",
		"latitude": "29.78510093688965",
		"longitude": "40.099998474121094"
	},
	{
		"City": "Alkantpan",
		"country": "South Africa",
		"META_IATA": "",
		"IATA": "\\N",
		"ICAO": "FACO",
		"latitude": "-29.906400680541992",
		"longitude": "22.316699981689453"
	},
	{
		"City": "Allahabad",
		"country": "India",
		"META_IATA": "",
		"IATA": "IXD",
		"ICAO": "VIAL",
		"latitude": "25.440099716186523",
		"longitude": "81.73390197753906"
	},
	{
		"City": "Allakaket",
		"country": "United States",
		"META_IATA": "",
		"IATA": "AET",
		"ICAO": "PFAL",
		"latitude": "66.5518035889",
		"longitude": "-152.621994019"
	},
	{
		"City": "Alldays",
		"country": "South Africa",
		"META_IATA": "",
		"IATA": "ADY",
		"ICAO": "FAAL",
		"latitude": "-22.6790008545",
		"longitude": "29.0555000305"
	},
	{
		"City": "Allendorf",
		"country": "Germany",
		"META_IATA": "",
		"IATA": "\\N",
		"ICAO": "EDFQ",
		"latitude": "51.03499984741211",
		"longitude": "8.680832862854004"
	},
	{
		"City": "Allentown",
		"country": "United States",
		"META_IATA": "",
		"IATA": "ABE",
		"ICAO": "KABE",
		"latitude": "40.652099609375",
		"longitude": "-75.44080352783203"
	},
	{
		"City": "Alliance",
		"country": "United States",
		"META_IATA": "",
		"IATA": "AIA",
		"ICAO": "KAIA",
		"latitude": "42.0531997681",
		"longitude": "-102.804000854"
	},
	{
		"City": "Allstedt",
		"country": "Germany",
		"META_IATA": "",
		"IATA": "\\N",
		"ICAO": "EDBT",
		"latitude": "51.38055419921875",
		"longitude": "11.446666717529297"
	},
	{
		"City": "Alluitsup Paa",
		"country": "Greenland",
		"META_IATA": "",
		"IATA": "LLU",
		"ICAO": "BGAP",
		"latitude": "60.46445",
		"longitude": "-45.56917"
	},
	{
		"City": "Alma",
		"country": "Canada",
		"META_IATA": "",
		"IATA": "YTF",
		"ICAO": "CYTF",
		"latitude": "48.50889968869999",
		"longitude": "-71.64189910889999"
	},
	{
		"City": "Alma-ata",
		"country": "Kazakhstan",
		"META_IATA": "",
		"IATA": "ALA",
		"ICAO": "UAAA",
		"latitude": "43.35210037231445",
		"longitude": "77.04049682617188"
	},
	{
		"City": "Almeirim",
		"country": "Brazil",
		"META_IATA": "",
		"IATA": "MEU",
		"ICAO": "SBMD",
		"latitude": "0.889839",
		"longitude": "-52.6022"
	},
	{
		"City": "Almeria",
		"country": "Spain",
		"META_IATA": "",
		"IATA": "LEI",
		"ICAO": "LEAM",
		"latitude": "36.84389877319336",
		"longitude": "-2.3701000213623047"
	},
	{
		"City": "Alofi",
		"country": "Niue",
		"META_IATA": "",
		"IATA": "IUE",
		"ICAO": "NIUE",
		"latitude": "-19.079030990600586",
		"longitude": "-169.92559814453125"
	},
	{
		"City": "Along",
		"country": "India",
		"META_IATA": "",
		"IATA": "IXV",
		"ICAO": "VEAN",
		"latitude": "28.17530059814453",
		"longitude": "94.802001953125"
	},
	{
		"City": "Alor Island",
		"country": "Indonesia",
		"META_IATA": "",
		"IATA": "ARD",
		"ICAO": "WATM",
		"latitude": "-8.132340431213379",
		"longitude": "124.59700012207031"
	},
	{
		"City": "Alor Setar",
		"country": "Malaysia",
		"META_IATA": "",
		"IATA": "AOR",
		"ICAO": "WMKA",
		"latitude": "6.189670085906982",
		"longitude": "100.39800262451172"
	},
	{
		"City": "Alpena",
		"country": "United States",
		"META_IATA": "",
		"IATA": "APN",
		"ICAO": "KAPN",
		"latitude": "45.0780983",
		"longitude": "-83.56030273"
	},
	{
		"City": "Alpha",
		"country": "Australia",
		"META_IATA": "",
		"IATA": "ABH",
		"ICAO": "YAPH",
		"latitude": "-23.646099",
		"longitude": "146.584"
	},
	{
		"City": "Alphonse",
		"country": "Seychelles",
		"META_IATA": "",
		"IATA": "\\N",
		"ICAO": "FSAL",
		"latitude": "-7.00478",
		"longitude": "52.7262"
	},
	{
		"City": "Alpine",
		"country": "United States",
		"META_IATA": "",
		"IATA": "ALE",
		"ICAO": "KE38",
		"latitude": "30.384199142499998",
		"longitude": "-103.683998108"
	},
	{
		"City": "Alpinopolis",
		"country": "Brazil",
		"META_IATA": "",
		"IATA": "\\N",
		"ICAO": "SBFU",
		"latitude": "-20.702800750732422",
		"longitude": "-46.33530044555664"
	},
	{
		"City": "Alpnach",
		"country": "Switzerland",
		"META_IATA": "",
		"IATA": "\\N",
		"ICAO": "LSMA",
		"latitude": "46.943901",
		"longitude": "8.28417"
	},
	{
		"City": "Alta",
		"country": "Norway",
		"META_IATA": "",
		"IATA": "ALF",
		"ICAO": "ENAT",
		"latitude": "69.976097106934",
		"longitude": "23.371700286865"
	},
	{
		"City": "Alta Floresta",
		"country": "Brazil",
		"META_IATA": "",
		"IATA": "AFL",
		"ICAO": "SBAT",
		"latitude": "-9.8663892746",
		"longitude": "-56.1049995422"
	},
	{
		"City": "ALTA FLORESTA D'OESTE",
		"country": "Brazil",
		"META_IATA": "",
		"IATA": "\\N",
		"ICAO": "SJTF",
		"latitude": "-13.061944007873535",
		"longitude": "-62.25749969482422"
	},
	{
		"City": "Alta Floresta D'Oeste",
		"country": "Brazil",
		"META_IATA": "",
		"IATA": "\\N",
		"ICAO": "SJYD",
		"latitude": "-11.9647216796875",
		"longitude": "-61.686668395996094"
	},
	{
		"City": "Altai",
		"country": "Mongolia",
		"META_IATA": "",
		"IATA": "LTI",
		"ICAO": "ZMAT",
		"latitude": "46.376399993896484",
		"longitude": "96.22109985351562"
	},
	{
		"City": "Altamira",
		"country": "Brazil",
		"META_IATA": "",
		"IATA": "ATM",
		"ICAO": "SBHT",
		"latitude": "-3.2539100646973",
		"longitude": "-52.254001617432"
	},
	{
		"City": "Altay",
		"country": "China",
		"META_IATA": "",
		"IATA": "AAT",
		"ICAO": "ZWAT",
		"latitude": "47.7498855591",
		"longitude": "88.08580780030002"
	},
	{
		"City": "Altenburg",
		"country": "Germany",
		"META_IATA": "",
		"IATA": "AOC",
		"ICAO": "EDAC",
		"latitude": "50.981945",
		"longitude": "12.506389"
	},
	{
		"City": "Altenrhein",
		"country": "Switzerland",
		"META_IATA": "",
		"IATA": "ACH",
		"ICAO": "LSZR",
		"latitude": "47.4850006104",
		"longitude": "9.560770034789998"
	},
	{
		"City": "Alto Rio Senguer",
		"country": "Argentina",
		"META_IATA": "",
		"IATA": "ARR",
		"ICAO": "SAVR",
		"latitude": "-45.013599",
		"longitude": "-70.812202"
	},
	{
		"City": "Alton/St Louis",
		"country": "United States",
		"META_IATA": "",
		"IATA": "ALN",
		"ICAO": "KALN",
		"latitude": "38.89030075069999",
		"longitude": "-90.0459976196"
	},
	{
		"City": "Altoona",
		"country": "United States",
		"META_IATA": "",
		"IATA": "AOO",
		"ICAO": "KAOO",
		"latitude": "40.29639816",
		"longitude": "-78.31999969"
	},
	{
		"City": "Altus",
		"country": "United States",
		"META_IATA": "",
		"IATA": "LTS",
		"ICAO": "KLTS",
		"latitude": "34.667098999",
		"longitude": "-99.2667007446"
	},
	{
		"City": "Alula",
		"country": "Somalia",
		"META_IATA": "",
		"IATA": "ALU",
		"ICAO": "HCMA",
		"latitude": "11.9582",
		"longitude": "50.748"
	},
	{
		"City": "Al-Ula",
		"country": "Saudi Arabia",
		"META_IATA": "",
		"IATA": "ULH",
		"ICAO": "OEAO",
		"latitude": "26.48",
		"longitude": "38.1288888889"
	},
	{
		"City": "Alverca",
		"country": "Portugal",
		"META_IATA": "",
		"IATA": "AVR",
		"ICAO": "LPAR",
		"latitude": "38.883301",
		"longitude": "-9.0301"
	},
	{
		"City": "Alxa Left Banner",
		"country": "China",
		"META_IATA": "",
		"IATA": "AXF",
		"ICAO": "ZBAL",
		"latitude": "38.74831",
		"longitude": "105.58858"
	},
	{
		"City": "Alxa Right Banner",
		"country": "China",
		"META_IATA": "",
		"IATA": "RHT",
		"ICAO": "ZBAR",
		"latitude": "39.225",
		"longitude": "101.546"
	},
	{
		"City": "Am Timan",
		"country": "Chad",
		"META_IATA": "",
		"IATA": "AMC",
		"ICAO": "FTTN",
		"latitude": "11.0340003967",
		"longitude": "20.274000167799997"
	},
	{
		"City": "Amakusa",
		"country": "Japan",
		"META_IATA": "",
		"IATA": "AXJ",
		"ICAO": "RJDA",
		"latitude": "32.482498",
		"longitude": "130.158997"
	},
	{
		"City": "Amami",
		"country": "Japan",
		"META_IATA": "",
		"IATA": "ASJ",
		"ICAO": "RJKA",
		"latitude": "28.430599212646484",
		"longitude": "129.71299743652344"
	},
	{
		"City": "Amapa",
		"country": "Brazil",
		"META_IATA": "",
		"IATA": "\\N",
		"ICAO": "SBAM",
		"latitude": "2.07751",
		"longitude": "-50.8582"
	},
	{
		"City": "Amarillo",
		"country": "United States",
		"META_IATA": "",
		"IATA": "AMA",
		"ICAO": "KAMA",
		"latitude": "35.219398",
		"longitude": "-101.706001"
	},
	{
		"City": "Amata",
		"country": "Australia",
		"META_IATA": "",
		"IATA": "AMT",
		"ICAO": "YAMT",
		"latitude": "-26.108299255371094",
		"longitude": "131.20700073242188"
	},
	{
		"City": "Amatopo",
		"country": "Suriname",
		"META_IATA": "",
		"IATA": "\\N",
		"ICAO": "SMAM",
		"latitude": "3.547885",
		"longitude": "-57.633958"
	},
	{
		"City": "Ambanja",
		"country": "Madagascar",
		"META_IATA": "",
		"IATA": "\\N",
		"ICAO": "FMNJ",
		"latitude": "-13.645705",
		"longitude": "48.459427"
	},
	{
		"City": "Ambato",
		"country": "Ecuador",
		"META_IATA": "",
		"IATA": "ATF",
		"ICAO": "SEAM",
		"latitude": "-1.2120699882507324",
		"longitude": "-78.57460021972656"
	},
	{
		"City": "Ambatondrazaka",
		"country": "Madagascar",
		"META_IATA": "",
		"IATA": "WAM",
		"ICAO": "FMMZ",
		"latitude": "-17.795378",
		"longitude": "48.442583"
	},
	{
		"City": "Amberieu",
		"country": "France",
		"META_IATA": "",
		"IATA": "\\N",
		"ICAO": "LFXA",
		"latitude": "45.987301",
		"longitude": "5.32844"
	},
	{
		"City": "Amberley",
		"country": "Australia",
		"META_IATA": "",
		"IATA": "ABM",
		"ICAO": "YBAM",
		"latitude": "-10.9508",
		"longitude": "142.459"
	},
	{
		"City": "Amberley",
		"country": "Australia",
		"META_IATA": "",
		"IATA": "\\N",
		"ICAO": "YAMB",
		"latitude": "-27.6406",
		"longitude": "152.712006"
	},
	{
		"City": "Ambilobe",
		"country": "Madagascar",
		"META_IATA": "",
		"IATA": "AMB",
		"ICAO": "FMNE",
		"latitude": "-13.188400268554688",
		"longitude": "48.987998962402344"
	},
	{
		"City": "Ambler",
		"country": "United States",
		"META_IATA": "",
		"IATA": "ABL",
		"ICAO": "PAFM",
		"latitude": "67.1063",
		"longitude": "-157.856989"
	},
	{
		"City": "Ambon",
		"country": "Indonesia",
		"META_IATA": "",
		"IATA": "AMQ",
		"ICAO": "WAPP",
		"latitude": "-3.7102599144",
		"longitude": "128.089004517"
	},
	{
		"City": "Amboseli National Park",
		"country": "Kenya",
		"META_IATA": "",
		"IATA": "ASV",
		"ICAO": "HKAM",
		"latitude": "-2.645050048828125",
		"longitude": "37.25310134887695"
	},
	{
		"City": "Ambryn Island",
		"country": "Vanuatu",
		"META_IATA": "",
		"IATA": "ULB",
		"ICAO": "NVSU",
		"latitude": "-16.3297",
		"longitude": "168.3011"
	},
	{
		"City": "Amderma",
		"country": "Russia",
		"META_IATA": "",
		"IATA": "AMV",
		"ICAO": "ULDD",
		"latitude": "69.76329803466797",
		"longitude": "61.556400299072266"
	},
	{
		"City": "Ameland",
		"country": "Netherlands",
		"META_IATA": "",
		"IATA": "\\N",
		"ICAO": "EHAL",
		"latitude": "53.451698",
		"longitude": "5.67722"
	},
	{
		"City": "Amendola",
		"country": "Italy",
		"META_IATA": "",
		"IATA": "\\N",
		"ICAO": "LIBA",
		"latitude": "41.541401",
		"longitude": "15.7181"
	},
	{
		"City": "Americana",
		"country": "Brazil",
		"META_IATA": "",
		"IATA": "\\N",
		"ICAO": "SDAI",
		"latitude": "-22.755800247192383",
		"longitude": "-47.26940155029297"
	},
	{
		"City": "Americus",
		"country": "United States",
		"META_IATA": "",
		"IATA": "\\N",
		"ICAO": "KACJ",
		"latitude": "32.110802",
		"longitude": "-84.188904"
	},
	{
		"City": "Amiens",
		"country": "France",
		"META_IATA": "",
		"IATA": "\\N",
		"ICAO": "LFAY",
		"latitude": "49.873004",
		"longitude": "2.387074"
	},
	{
		"City": "Amilcar Cabral",
		"country": "Cape Verde",
		"META_IATA": "",
		"IATA": "SID",
		"ICAO": "GVAC",
		"latitude": "16.7414",
		"longitude": "-22.9494"
	},
	{
		"City": "Amlikon",
		"country": "Switzerland",
		"META_IATA": "",
		"IATA": "\\N",
		"ICAO": "LSPA",
		"latitude": "47.57419967651367",
		"longitude": "9.047499656677246"
	},
	{
		"City": "Amman",
		"country": "Jordan",
		"META_IATA": "",
		"IATA": "AMM",
		"ICAO": "OJAI",
		"latitude": "31.7226009369",
		"longitude": "35.9931983948"
	},
	{
		"City": "Amman",
		"country": "Jordan",
		"META_IATA": "",
		"IATA": "ADJ",
		"ICAO": "OJAM",
		"latitude": "31.972700119018555",
		"longitude": "35.991600036621094"
	},
	{
		"City": "Ammassivik",
		"country": "Greenland",
		"META_IATA": "",
		"IATA": "\\N",
		"ICAO": "BGAS",
		"latitude": "60.597376",
		"longitude": "-45.382445"
	},
	{
		"City": "Amos",
		"country": "Canada",
		"META_IATA": "",
		"IATA": "YEY",
		"ICAO": "CYEY",
		"latitude": "48.563903",
		"longitude": "-78.249702"
	},
	{
		"City": "Ampampamena",
		"country": "Madagascar",
		"META_IATA": "",
		"IATA": "IVA",
		"ICAO": "FMNZ",
		"latitude": "-13.484816",
		"longitude": "48.632702"
	},
	{
		"City": "Ampilatwatja",
		"country": "Australia",
		"META_IATA": "",
		"IATA": "\\N",
		"ICAO": "YAMJ",
		"latitude": "-21.655000686645508",
		"longitude": "135.22999572753906"
	},
	{
		"City": "Amritsar",
		"country": "India",
		"META_IATA": "",
		"IATA": "ATQ",
		"ICAO": "VIAR",
		"latitude": "31.7096004486",
		"longitude": "74.7973022461"
	},
	{
		"City": "Amsterdam",
		"country": "Netherlands",
		"META_IATA": "",
		"IATA": "AMS",
		"ICAO": "EHAM",
		"latitude": "52.308601",
		"longitude": "4.76389"
	},
	{
		"City": "Anaa",
		"country": "French Polynesia",
		"META_IATA": "",
		"IATA": "AAA",
		"ICAO": "NTGA",
		"latitude": "-17.35260009765625",
		"longitude": "-145.50999450683594"
	},
	{
		"City": "Anaco",
		"country": "Venezuela",
		"META_IATA": "",
		"IATA": "AAO",
		"ICAO": "SVAN",
		"latitude": "9.430225372314453",
		"longitude": "-64.4707260131836"
	},
	{
		"City": "Anadyr",
		"country": "Russia",
		"META_IATA": "",
		"IATA": "DYR",
		"ICAO": "UHMA",
		"latitude": "64.734902",
		"longitude": "177.740997"
	},
	{
		"City": "Anahim Lake",
		"country": "Canada",
		"META_IATA": "",
		"IATA": "YAA",
		"ICAO": "CAJ4",
		"latitude": "52.45249938964844",
		"longitude": "-125.3030014038086"
	},
	{
		"City": "Anaktuvuk Pass",
		"country": "United States",
		"META_IATA": "",
		"IATA": "AKP",
		"ICAO": "PAKP",
		"latitude": "68.13359833",
		"longitude": "-151.7429962"
	},
	{
		"City": "Analalava",
		"country": "Madagascar",
		"META_IATA": "",
		"IATA": "HVA",
		"ICAO": "FMNL",
		"latitude": "-14.62969970703125",
		"longitude": "47.76380157470703"
	},
	{
		"City": "Anambas Islands",
		"country": "Indonesia",
		"META_IATA": "",
		"IATA": "MWK",
		"ICAO": "WIOM",
		"latitude": "3.3481199741363525",
		"longitude": "106.25800323486328"
	},
	{
		"City": "Anapa",
		"country": "Russia",
		"META_IATA": "",
		"IATA": "AAQ",
		"ICAO": "URKA",
		"latitude": "45.002101898193",
		"longitude": "37.347301483154"
	},
	{
		"City": "Anapaike",
		"country": "Suriname",
		"META_IATA": "",
		"IATA": "\\N",
		"ICAO": "SMLA",
		"latitude": "3.411301",
		"longitude": "-54.028049"
	},
	{
		"City": "Anapolis",
		"country": "Brazil",
		"META_IATA": "",
		"IATA": "\\N",
		"ICAO": "SBAN",
		"latitude": "-16.2292",
		"longitude": "-48.964298"
	},
	{
		"City": "Ancenis",
		"country": "France",
		"META_IATA": "",
		"IATA": "\\N",
		"ICAO": "LFFI",
		"latitude": "47.40810012817383",
		"longitude": "-1.1775000095367432"
	},
	{
		"City": "Anchorage",
		"country": "United States",
		"META_IATA": "",
		"IATA": "MRI",
		"ICAO": "PAMR",
		"latitude": "61.2135009765625",
		"longitude": "-149.843994140625"
	},
	{
		"City": "Anchorage",
		"country": "United States",
		"META_IATA": "",
		"IATA": "EDF",
		"ICAO": "PAED",
		"latitude": "61.250999450683594",
		"longitude": "-149.8070068359375"
	},
	{
		"City": "Anchorage",
		"country": "United States",
		"META_IATA": "",
		"IATA": "ANC",
		"ICAO": "PANC",
		"latitude": "61.174400329589844",
		"longitude": "-149.99600219726562"
	},
	{
		"City": "Anchorage",
		"country": "United States",
		"META_IATA": "",
		"IATA": "\\N",
		"ICAO": "PALH",
		"latitude": "61.186946",
		"longitude": "-149.965442"
	},
	{
		"City": "Ancona",
		"country": "Italy",
		"META_IATA": "",
		"IATA": "AOI",
		"ICAO": "LIPY",
		"latitude": "43.616299",
		"longitude": "13.3623"
	},
	{
		"City": "Andahuaylas",
		"country": "Peru",
		"META_IATA": "",
		"IATA": "ANS",
		"ICAO": "SPHY",
		"latitude": "-13.706399917602539",
		"longitude": "-73.35040283203125"
	},
	{
		"City": "Andapa",
		"country": "Madagascar",
		"META_IATA": "",
		"IATA": "ZWA",
		"ICAO": "FMND",
		"latitude": "-14.651700019836426",
		"longitude": "49.620601654052734"
	},
	{
		"City": "Andernos-Les-Bains",
		"country": "France",
		"META_IATA": "",
		"IATA": "\\N",
		"ICAO": "LFCD",
		"latitude": "44.7561",
		"longitude": "-1.06333"
	},
	{
		"City": "Andersen",
		"country": "Guam",
		"META_IATA": "",
		"IATA": "UAM",
		"ICAO": "PGUA",
		"latitude": "13.584",
		"longitude": "144.929998"
	},
	{
		"City": "Andersen",
		"country": "United States",
		"META_IATA": "",
		"IATA": "AND",
		"ICAO": "KAND",
		"latitude": "34.4945983887",
		"longitude": "-82.70939636230001"
	},
	{
		"City": "ANDERSON",
		"country": "United States",
		"META_IATA": "",
		"IATA": "AID",
		"ICAO": "KAID",
		"latitude": "40.10860061649999",
		"longitude": "-85.6129989624"
	},
	{
		"City": "Anderstorp",
		"country": "Sweden",
		"META_IATA": "",
		"IATA": "\\N",
		"ICAO": "ESMP",
		"latitude": "57.264198303222656",
		"longitude": "13.59939956665039"
	},
	{
		"City": "Andizhan",
		"country": "Uzbekistan",
		"META_IATA": "",
		"IATA": "AZN",
		"ICAO": "UTKA",
		"latitude": "40.7276992798",
		"longitude": "72.2939987183"
	},
	{
		"City": "Andoas",
		"country": "Peru",
		"META_IATA": "",
		"IATA": "AOP",
		"ICAO": "SPAS",
		"latitude": "-2.79612994194",
		"longitude": "-76.46659851070001"
	},
	{
		"City": "Andoya",
		"country": "Norway",
		"META_IATA": "",
		"IATA": "ANX",
		"ICAO": "ENAN",
		"latitude": "69.292503356934",
		"longitude": "16.144199371338"
	},
	{
		"City": "Andravida",
		"country": "Greece",
		"META_IATA": "",
		"IATA": "PYR",
		"ICAO": "LGAD",
		"latitude": "37.9207",
		"longitude": "21.292601"
	},
	{
		"City": "Andros",
		"country": "Bahamas",
		"META_IATA": "",
		"IATA": "COX",
		"ICAO": "MYAK",
		"latitude": "24.158701",
		"longitude": "-77.589798"
	},
	{
		"City": "Andros Town",
		"country": "Bahamas",
		"META_IATA": "",
		"IATA": "ASD",
		"ICAO": "MYAF",
		"latitude": "24.697900772094727",
		"longitude": "-77.79560089111328"
	},
	{
		"City": "Anegada",
		"country": "British Virgin Islands",
		"META_IATA": "",
		"IATA": "NGD",
		"ICAO": "TUPA",
		"latitude": "18.72719955444336",
		"longitude": "-64.32969665527344"
	},
	{
		"City": "Anelghowhat",
		"country": "Vanuatu",
		"META_IATA": "",
		"IATA": "AUY",
		"ICAO": "NVVA",
		"latitude": "-20.2492008209",
		"longitude": "169.770996094"
	},
	{
		"City": "Angaha",
		"country": " Niuafo'ou Island",
		"META_IATA": "Tonga",
		"IATA": "",
		"ICAO": "NFO",
		"latitude": "NFTO",
		"longitude": "-15.5707998276"
	},
	{
		"City": "Angatja Homeland",
		"country": "Australia",
		"META_IATA": "",
		"IATA": "\\N",
		"ICAO": "YNYP",
		"latitude": "-26.200000762939453",
		"longitude": "130.23300170898438"
	},
	{
		"City": "Angeles City",
		"country": "Philippines",
		"META_IATA": "",
		"IATA": "CRK",
		"ICAO": "RPLC",
		"latitude": "15.186",
		"longitude": "120.559998"
	},
	{
		"City": "Ängelholm",
		"country": "Sweden",
		"META_IATA": "",
		"IATA": "AGH",
		"ICAO": "ESTA",
		"latitude": "56.29610061645508",
		"longitude": "12.847100257873535"
	},
	{
		"City": "Angelsey",
		"country": "United Kingdom",
		"META_IATA": "",
		"IATA": "VLY",
		"ICAO": "EGOV",
		"latitude": "53.2481002808",
		"longitude": "-4.53533983231"
	},
	{
		"City": "Angers/Marcé",
		"country": "France",
		"META_IATA": "",
		"IATA": "ANE",
		"ICAO": "LFJR",
		"latitude": "47.560299",
		"longitude": "0.312222"
	},
	{
		"City": "Angleton",
		"country": "United States",
		"META_IATA": "",
		"IATA": "LJN",
		"ICAO": "KLBX",
		"latitude": "29.1086006165",
		"longitude": "-95.462097168"
	},
	{
		"City": "Angling Lake",
		"country": "Canada",
		"META_IATA": "",
		"IATA": "YAX",
		"ICAO": "CKB6",
		"latitude": "53.84920120239258",
		"longitude": "-89.57939910888672"
	},
	{
		"City": "Angmagssalik",
		"country": "Greenland",
		"META_IATA": "",
		"IATA": "\\N",
		"ICAO": "BGAM",
		"latitude": "65.612296",
		"longitude": "-37.618335"
	},
	{
		"City": "Angola",
		"country": "United States",
		"META_IATA": "",
		"IATA": "ANQ",
		"ICAO": "KANQ",
		"latitude": "41.639702",
		"longitude": "-85.083504"
	},
	{
		"City": "Angoon",
		"country": "United States",
		"META_IATA": "",
		"IATA": "AGN",
		"ICAO": "PAGN",
		"latitude": "57.503601",
		"longitude": "-134.585007"
	},
	{
		"City": "Angouleme",
		"country": "France",
		"META_IATA": "",
		"IATA": "ANG",
		"ICAO": "LFBU",
		"latitude": "45.72919845581055",
		"longitude": "0.22145600616931915"
	},
	{
		"City": "Angra dos Reis",
		"country": "Brazil",
		"META_IATA": "",
		"IATA": "\\N",
		"ICAO": "SDAG",
		"latitude": "-22.975299835205078",
		"longitude": "-44.307098388671875"
	},
	{
		"City": "Anholt",
		"country": "Denmark",
		"META_IATA": "",
		"IATA": "\\N",
		"ICAO": "EKAT",
		"latitude": "56.698898315399994",
		"longitude": "11.5558996201"
	},
	{
		"City": "Aniak",
		"country": "United States",
		"META_IATA": "",
		"IATA": "ANI",
		"ICAO": "PANI",
		"latitude": "61.581600189208984",
		"longitude": "-159.54299926757812"
	},
	{
		"City": "Anisakan",
		"country": "Burma",
		"META_IATA": "",
		"IATA": "\\N",
		"ICAO": "VYAS",
		"latitude": "21.955400466918945",
		"longitude": "96.40609741210938"
	},
	{
		"City": "Aniwa",
		"country": "Vanuatu",
		"META_IATA": "",
		"IATA": "AWD",
		"ICAO": "NVVB",
		"latitude": "-19.2346",
		"longitude": "169.6009"
	},
	{
		"City": "Anjouan",
		"country": "Comoros",
		"META_IATA": "",
		"IATA": "AJN",
		"ICAO": "FMCV",
		"latitude": "-12.131699562072754",
		"longitude": "44.430301666259766"
	},
	{
		"City": "Ankang",
		"country": "China",
		"META_IATA": "",
		"IATA": "AKA",
		"ICAO": "ZLAK",
		"latitude": "32.708099",
		"longitude": "108.931"
	},
	{
		"City": "Ankara",
		"country": "Turkey",
		"META_IATA": "",
		"IATA": "\\N",
		"ICAO": "LTAB",
		"latitude": "39.9350013733",
		"longitude": "32.7407989502"
	},
	{
		"City": "Ankara",
		"country": "Turkey",
		"META_IATA": "",
		"IATA": "ESB",
		"ICAO": "LTAC",
		"latitude": "40.128101348899996",
		"longitude": "32.995098114"
	},
	{
		"City": "Ankara",
		"country": "Turkey",
		"META_IATA": "",
		"IATA": "ANK",
		"ICAO": "LTAD",
		"latitude": "39.949798584",
		"longitude": "32.6885986328"
	},
	{
		"City": "Ankara",
		"country": "Turkey",
		"META_IATA": "",
		"IATA": "\\N",
		"ICAO": "LTAE",
		"latitude": "40.078899383499994",
		"longitude": "32.5656013489"
	},
	{
		"City": "Ankavandra",
		"country": "Madagascar",
		"META_IATA": "",
		"IATA": "JVA",
		"ICAO": "FMMK",
		"latitude": "-18.80501",
		"longitude": "45.273467"
	},
	{
		"City": "Ankeny",
		"country": "United States",
		"META_IATA": "",
		"IATA": "\\N",
		"ICAO": "KIKV",
		"latitude": "41.69139862060547",
		"longitude": "-93.56639862060547"
	},
	{
		"City": "Anklam",
		"country": "Germany",
		"META_IATA": "",
		"IATA": "\\N",
		"ICAO": "EDCA",
		"latitude": "53.832779",
		"longitude": "13.668611"
	},
	{
		"City": "Ann",
		"country": "Burma",
		"META_IATA": "",
		"IATA": "VBA",
		"ICAO": "VYAN",
		"latitude": "19.769199",
		"longitude": "94.0261"
	},
	{
		"City": "Ann Arbor",
		"country": "United States",
		"META_IATA": "",
		"IATA": "ARB",
		"ICAO": "KARB",
		"latitude": "42.2229995728",
		"longitude": "-83.74559783939999"
	},
	{
		"City": "Annaba",
		"country": "Algeria",
		"META_IATA": "",
		"IATA": "AAE",
		"ICAO": "DABB",
		"latitude": "36.822201",
		"longitude": "7.809174"
	},
	{
		"City": "Annai",
		"country": "Guyana",
		"META_IATA": "",
		"IATA": "NAI",
		"ICAO": "SYAN",
		"latitude": "3.959439992904663",
		"longitude": "-59.12419891357422"
	},
	{
		"City": "Annapolis",
		"country": "United States",
		"META_IATA": "",
		"IATA": "ANP",
		"ICAO": "KANP",
		"latitude": "38.942902",
		"longitude": "-76.568398"
	},
	{
		"City": "Annecy",
		"country": "France",
		"META_IATA": "",
		"IATA": "NCY",
		"ICAO": "LFLP",
		"latitude": "45.9308333",
		"longitude": "6.1063889"
	},
	{
		"City": "Annemasse",
		"country": "France",
		"META_IATA": "",
		"IATA": "QNJ",
		"ICAO": "LFLI",
		"latitude": "46.1920013428",
		"longitude": "6.268390178680001"
	},
	{
		"City": "Annette Island",
		"country": "United States",
		"META_IATA": "",
		"IATA": "ANN",
		"ICAO": "PANT",
		"latitude": "55.04240036010742",
		"longitude": "-131.57200622558594"
	},
	{
		"City": "Anniston",
		"country": "United States",
		"META_IATA": "",
		"IATA": "ANB",
		"ICAO": "KANB",
		"latitude": "33.5882",
		"longitude": "-85.8581"
	},
	{
		"City": "Anoka",
		"country": "United States",
		"META_IATA": "",
		"IATA": "\\N",
		"ICAO": "KANE",
		"latitude": "45.145",
		"longitude": "-93.211401"
	},
	{
		"City": "Anqing",
		"country": "China",
		"META_IATA": "",
		"IATA": "AQG",
		"ICAO": "ZSAQ",
		"latitude": "30.582199",
		"longitude": "117.050003"
	},
	{
		"City": "Ansbach",
		"country": "Germany",
		"META_IATA": "",
		"IATA": "\\N",
		"ICAO": "EDQF",
		"latitude": "49.361111",
		"longitude": "10.669444"
	},
	{
		"City": "Anshan",
		"country": "China",
		"META_IATA": "",
		"IATA": "AOG",
		"ICAO": "ZYAS",
		"latitude": "41.105301",
		"longitude": "122.853996"
	},
	{
		"City": "Anshun",
		"country": "China",
		"META_IATA": "",
		"IATA": "AVA",
		"ICAO": "ZUAS",
		"latitude": "26.2605555556",
		"longitude": "105.873333333"
	},
	{
		"City": "Anta",
		"country": "Peru",
		"META_IATA": "",
		"IATA": "ATA",
		"ICAO": "SPHZ",
		"latitude": "-9.347439765930176",
		"longitude": "-77.59839630126953"
	},
	{
		"City": "Antalaha",
		"country": "Madagascar",
		"META_IATA": "",
		"IATA": "ANM",
		"ICAO": "FMNH",
		"latitude": "-14.99940013885498",
		"longitude": "50.3202018737793"
	},
	{
		"City": "Antalya",
		"country": "Turkey",
		"META_IATA": "",
		"IATA": "AYT",
		"ICAO": "LTAI",
		"latitude": "36.898701",
		"longitude": "30.800501"
	},
	{
		"City": "Antananarivo",
		"country": "Madagascar",
		"META_IATA": "",
		"IATA": "TNR",
		"ICAO": "FMMI",
		"latitude": "-18.7969",
		"longitude": "47.478802"
	},
	{
		"City": "Antigua",
		"country": "Antigua and Barbuda",
		"META_IATA": "",
		"IATA": "ANU",
		"ICAO": "TAPA",
		"latitude": "17.1367",
		"longitude": "-61.792702"
	},
	{
		"City": "Antofagasta",
		"country": "Chile",
		"META_IATA": "",
		"IATA": "ANF",
		"ICAO": "SCFA",
		"latitude": "-23.444501",
		"longitude": "-70.445099"
	},
	{
		"City": "Antsalova",
		"country": "Madagascar",
		"META_IATA": "",
		"IATA": "WAQ",
		"ICAO": "FMMG",
		"latitude": "-18.701273",
		"longitude": "44.614921"
	},
	{
		"City": "Antsirabe",
		"country": "Madagascar",
		"META_IATA": "",
		"IATA": "ATJ",
		"ICAO": "FMME",
		"latitude": "-19.8392214824",
		"longitude": "47.063713073699994"
	},
	{
		"City": "Antsiranana",
		"country": "Madagascar",
		"META_IATA": "",
		"IATA": "DIE",
		"ICAO": "FMNA",
		"latitude": "-12.34939956665039",
		"longitude": "49.29169845581055"
	},
	{
		"City": "Antsohihy",
		"country": "Madagascar",
		"META_IATA": "",
		"IATA": "WAI",
		"ICAO": "FMNW",
		"latitude": "-14.898799896240234",
		"longitude": "47.993900299072266"
	},
	{
		"City": "Antwerp",
		"country": "Belgium",
		"META_IATA": "",
		"IATA": "ANR",
		"ICAO": "EBAW",
		"latitude": "51.1893997192",
		"longitude": "4.46027994156"
	},
	{
		"City": "Anuradhapura",
		"country": "Sri Lanka",
		"META_IATA": "",
		"IATA": "ACJ",
		"ICAO": "VCCA",
		"latitude": "8.30148983002",
		"longitude": "80.42790222170001"
	},
	{
		"City": "Anvik",
		"country": "United States",
		"META_IATA": "",
		"IATA": "ANV",
		"ICAO": "PANV",
		"latitude": "62.646702",
		"longitude": "-160.190994"
	},
	{
		"City": "Aomori",
		"country": "Japan",
		"META_IATA": "",
		"IATA": "AOJ",
		"ICAO": "RJSA",
		"latitude": "40.73469924926758",
		"longitude": "140.6909942626953"
	},
	{
		"City": "Aosta",
		"country": "Italy",
		"META_IATA": "",
		"IATA": "AOT",
		"ICAO": "LIMW",
		"latitude": "45.738499",
		"longitude": "7.36872"
	},
	{
		"City": "Apalachicola",
		"country": "United States",
		"META_IATA": "",
		"IATA": "AAF",
		"ICAO": "KAAF",
		"latitude": "29.72750092",
		"longitude": "-85.02749634"
	},
	{
		"City": "Apataki",
		"country": "French Polynesia",
		"META_IATA": "",
		"IATA": "APK",
		"ICAO": "NTGD",
		"latitude": "-15.5736",
		"longitude": "-146.414993"
	},
	{
		"City": "Apatity",
		"country": "Russia",
		"META_IATA": "",
		"IATA": "KVK",
		"ICAO": "ULMK",
		"latitude": "67.46330261230469",
		"longitude": "33.58829879760742"
	},
	{
		"City": "Apetina",
		"country": "Suriname",
		"META_IATA": "",
		"IATA": "\\N",
		"ICAO": "SMPT",
		"latitude": "3.50278",
		"longitude": "-55.058791"
	},
	{
		"City": "Apia",
		"country": "Samoa",
		"META_IATA": "",
		"IATA": "FGI",
		"ICAO": "NSFI",
		"latitude": "-13.848699569699999",
		"longitude": "-171.740005493"
	},
	{
		"City": "Apiay",
		"country": "Colombia",
		"META_IATA": "",
		"IATA": "API",
		"ICAO": "SKAP",
		"latitude": "4.07607",
		"longitude": "-73.5627"
	},
	{
		"City": "Apoteri",
		"country": "Guyana",
		"META_IATA": "",
		"IATA": "\\N",
		"ICAO": "SYAP",
		"latitude": "4.013879776000977",
		"longitude": "-58.60499954223633"
	},
	{
		"City": "Appleton",
		"country": "United States",
		"META_IATA": "",
		"IATA": "ATW",
		"ICAO": "KATW",
		"latitude": "44.258098602299995",
		"longitude": "-88.5190963745"
	},
	{
		"City": "APUI",
		"country": "Brazil",
		"META_IATA": "",
		"IATA": "\\N",
		"ICAO": "SWYN",
		"latitude": "-7.17287015914917",
		"longitude": "-59.839599609375"
	},
	{
		"City": "Aqaba",
		"country": "Jordan",
		"META_IATA": "",
		"IATA": "AQJ",
		"ICAO": "OJAQ",
		"latitude": "29.611600875854492",
		"longitude": "35.01810073852539"
	},
	{
		"City": "Aracaju",
		"country": "Brazil",
		"META_IATA": "",
		"IATA": "AJU",
		"ICAO": "SBAR",
		"latitude": "-10.984000206",
		"longitude": "-37.0703010559"
	},
	{
		"City": "Aracatuba",
		"country": "Brazil",
		"META_IATA": "",
		"IATA": "ARU",
		"ICAO": "SBAU",
		"latitude": "-21.1413002014",
		"longitude": "-50.4247016907"
	},
	{
		"City": "Arad",
		"country": "Romania",
		"META_IATA": "",
		"IATA": "ARW",
		"ICAO": "LRAR",
		"latitude": "46.17660140991211",
		"longitude": "21.261999130249023"
	},
	{
		"City": "Araguaina",
		"country": "Brazil",
		"META_IATA": "",
		"IATA": "AUX",
		"ICAO": "SWGN",
		"latitude": "-7.22787",
		"longitude": "-48.240501"
	},
	{
		"City": "Arak",
		"country": "Iran",
		"META_IATA": "",
		"IATA": "AJK",
		"ICAO": "OIHR",
		"latitude": "34.138099670410156",
		"longitude": "49.8473014831543"
	},
	{
		"City": "Arandis",
		"country": "Namibia",
		"META_IATA": "",
		"IATA": "ADI",
		"ICAO": "FYAR",
		"latitude": "-22.462200164794922",
		"longitude": "14.979999542236328"
	},
	{
		"City": "Arapiraca",
		"country": "Brazil",
		"META_IATA": "",
		"IATA": "APQ",
		"ICAO": "SNAL",
		"latitude": "-9.775360107421875",
		"longitude": "-36.62919998168945"
	},
	{
		"City": "Arar",
		"country": "Saudi Arabia",
		"META_IATA": "",
		"IATA": "RAE",
		"ICAO": "OERR",
		"latitude": "30.906600952148438",
		"longitude": "41.13819885253906"
	},
	{
		"City": "Araracuara",
		"country": "Brazil",
		"META_IATA": "",
		"IATA": "AQA",
		"ICAO": "SBAQ",
		"latitude": "-21.812000274699997",
		"longitude": "-48.1329994202"
	},
	{
		"City": "Araracuara",
		"country": "Colombia",
		"META_IATA": "",
		"IATA": "ACR",
		"ICAO": "SKAC",
		"latitude": "0.5833",
		"longitude": "-72.4083"
	},
	{
		"City": "Arathusa",
		"country": "South Africa",
		"META_IATA": "",
		"IATA": "ASS",
		"ICAO": "FACC",
		"latitude": "-24.744165",
		"longitude": "31.522499"
	},
	{
		"City": "Arauca",
		"country": "Colombia",
		"META_IATA": "",
		"IATA": "AUC",
		"ICAO": "SKUC",
		"latitude": "7.06888",
		"longitude": "-70.7369"
	},
	{
		"City": "Araxa",
		"country": "Brazil",
		"META_IATA": "",
		"IATA": "AAX",
		"ICAO": "SBAX",
		"latitude": "-19.563199996948",
		"longitude": "-46.960399627686"
	},
	{
		"City": "Arba Minch",
		"country": "Ethiopia",
		"META_IATA": "",
		"IATA": "AMH",
		"ICAO": "HAAM",
		"latitude": "6.0393900871276855",
		"longitude": "37.59049987792969"
	},
	{
		"City": "Arboga",
		"country": "Sweden",
		"META_IATA": "",
		"IATA": "\\N",
		"ICAO": "ESQO",
		"latitude": "59.386600494384766",
		"longitude": "15.924099922180176"
	},
	{
		"City": "Arcachon",
		"country": "France",
		"META_IATA": "",
		"IATA": "\\N",
		"ICAO": "LFCH",
		"latitude": "44.596401",
		"longitude": "-1.11083"
	},
	{
		"City": "Arcata CA",
		"country": "United States",
		"META_IATA": "",
		"IATA": "ACV",
		"ICAO": "KACV",
		"latitude": "40.978101",
		"longitude": "-124.109"
	},
	{
		"City": "Arctic Bay",
		"country": "Canada",
		"META_IATA": "",
		"IATA": "YAB",
		"ICAO": "CJX7",
		"latitude": "73.0058922479",
		"longitude": "-85.0325489044"
	},
	{
		"City": "Arctic Village",
		"country": "United States",
		"META_IATA": "",
		"IATA": "ARC",
		"ICAO": "PARC",
		"latitude": "68.1147",
		"longitude": "-145.578995"
	},
	{
		"City": "Ardabil",
		"country": "Iran",
		"META_IATA": "",
		"IATA": "ADU",
		"ICAO": "OITL",
		"latitude": "38.3256988525",
		"longitude": "48.4244003296"
	},
	{
		"City": "Ardmore",
		"country": "New Zealand",
		"META_IATA": "",
		"IATA": "AMZ",
		"ICAO": "NZAR",
		"latitude": "-37.029701232910156",
		"longitude": "174.97300720214844"
	},
	{
		"City": "Ardmore",
		"country": "United States",
		"META_IATA": "",
		"IATA": "ADM",
		"ICAO": "KADM",
		"latitude": "34.30301",
		"longitude": "-97.0196342"
	},
	{
		"City": "Arecibo",
		"country": "Puerto Rico",
		"META_IATA": "",
		"IATA": "ARE",
		"ICAO": "TJAB",
		"latitude": "18.4500007629",
		"longitude": "-66.6753005981"
	},
	{
		"City": "Arequipa",
		"country": "Peru",
		"META_IATA": "",
		"IATA": "AQP",
		"ICAO": "SPQU",
		"latitude": "-16.3411006927",
		"longitude": "-71.5830993652"
	},
	{
		"City": "Areyonga",
		"country": "Australia",
		"META_IATA": "",
		"IATA": "\\N",
		"ICAO": "YARN",
		"latitude": "-24.066699981689453",
		"longitude": "132.26699829101562"
	},
	{
		"City": "Argyle",
		"country": "Australia",
		"META_IATA": "",
		"IATA": "GYL",
		"ICAO": "YARG",
		"latitude": "-16.6369",
		"longitude": "128.451004"
	},
	{
		"City": "Argyle",
		"country": "Australia",
		"META_IATA": "",
		"IATA": "PUG",
		"ICAO": "YPAG",
		"latitude": "-32.506900787353516",
		"longitude": "137.7169952392578"
	},
	{
		"City": "Arica",
		"country": "Chile",
		"META_IATA": "",
		"IATA": "ARI",
		"ICAO": "SCAR",
		"latitude": "-18.348499",
		"longitude": "-70.338699"
	},
	{
		"City": "Aripuana",
		"country": "Brazil",
		"META_IATA": "",
		"IATA": "AIR",
		"ICAO": "SWRP",
		"latitude": "-10.188278",
		"longitude": "-59.457273"
	},
	{
		"City": "ARIQUEMES",
		"country": "Brazil",
		"META_IATA": "",
		"IATA": "\\N",
		"ICAO": "SJOG",
		"latitude": "-9.884721755981445",
		"longitude": "-63.04888916015625"
	},
	{
		"City": "Arkalyk",
		"country": "Kazakhstan",
		"META_IATA": "",
		"IATA": "AYK",
		"ICAO": "UAUR",
		"latitude": "50.318599700927734",
		"longitude": "66.95279693603516"
	},
	{
		"City": "Arkhangelsk",
		"country": "Russia",
		"META_IATA": "",
		"IATA": "ARH",
		"ICAO": "ULAA",
		"latitude": "64.60030364990234",
		"longitude": "40.71670150756836"
	},
	{
		"City": "Arkhangelsk",
		"country": "Russia",
		"META_IATA": "",
		"IATA": "LDG",
		"ICAO": "ULAL",
		"latitude": "64.8960037231",
		"longitude": "45.7229995728"
	},
	{
		"City": "Arkhangelsk",
		"country": "Russia",
		"META_IATA": "",
		"IATA": "\\N",
		"ICAO": "ULAH",
		"latitude": "64.44170379639999",
		"longitude": "40.421699523899996"
	},
	{
		"City": "Arlington",
		"country": "United States",
		"META_IATA": "",
		"IATA": "\\N",
		"ICAO": "KGKY",
		"latitude": "32.66389846801758",
		"longitude": "-97.09429931640625"
	},
	{
		"City": "Arlington",
		"country": "United States",
		"META_IATA": "",
		"IATA": "\\N",
		"ICAO": "KAWO",
		"latitude": "48.16070175",
		"longitude": "-122.1589966"
	},
	{
		"City": "Armari Air Force Base",
		"country": "Estonia",
		"META_IATA": "",
		"IATA": "\\N",
		"ICAO": "EEEI",
		"latitude": "59.26029968261719",
		"longitude": "24.208499908447266"
	},
	{
		"City": "Armenia",
		"country": "Colombia",
		"META_IATA": "",
		"IATA": "AXM",
		"ICAO": "SKAR",
		"latitude": "4.45278",
		"longitude": "-75.7664"
	},
	{
		"City": "Armidale",
		"country": "Australia",
		"META_IATA": "",
		"IATA": "ARM",
		"ICAO": "YARM",
		"latitude": "-30.528099060099997",
		"longitude": "151.617004395"
	},
	{
		"City": "Armstrong",
		"country": "Canada",
		"META_IATA": "",
		"IATA": "YYW",
		"ICAO": "CYYW",
		"latitude": "50.29029846191406",
		"longitude": "-88.90969848632812"
	},
	{
		"City": "Arnbruck",
		"country": "Germany",
		"META_IATA": "",
		"IATA": "\\N",
		"ICAO": "EDNB",
		"latitude": "49.12472152709961",
		"longitude": "12.985555648803711"
	},
	{
		"City": "Arnhem",
		"country": "Netherlands",
		"META_IATA": "",
		"IATA": "\\N",
		"ICAO": "EHTL",
		"latitude": "52.057201",
		"longitude": "5.92444"
	},
	{
		"City": "Arnsberg",
		"country": "Germany",
		"META_IATA": "",
		"IATA": "\\N",
		"ICAO": "EDLA",
		"latitude": "51.483890533447266",
		"longitude": "7.8983330726623535"
	},
	{
		"City": "Arorae",
		"country": "Kiribati",
		"META_IATA": "",
		"IATA": "AIS",
		"ICAO": "NGTR",
		"latitude": "-2.61611008644104",
		"longitude": "176.80299377441406"
	},
	{
		"City": "Arrecife",
		"country": "Spain",
		"META_IATA": "",
		"IATA": "ACE",
		"ICAO": "GCRR",
		"latitude": "28.945499",
		"longitude": "-13.6052"
	},
	{
		"City": "Arthur's Town",
		"country": "Bahamas",
		"META_IATA": "",
		"IATA": "ATC",
		"ICAO": "MYCA",
		"latitude": "24.6294",
		"longitude": "-75.673797"
	},
	{
		"City": "Artigas ",
		"country": "Uruguay",
		"META_IATA": "",
		"IATA": "ATI",
		"ICAO": "SUAG",
		"latitude": "-30.400699615478516",
		"longitude": "-56.50790023803711"
	},
	{
		"City": "Arua",
		"country": "Uganda",
		"META_IATA": "",
		"IATA": "RUA",
		"ICAO": "HUAR",
		"latitude": "3.049999952316284",
		"longitude": "30.91699981689453"
	},
	{
		"City": "Arusha",
		"country": "Tanzania",
		"META_IATA": "",
		"IATA": "ARK",
		"ICAO": "HTAR",
		"latitude": "-3.3677899837493896",
		"longitude": "36.63330078125"
	},
	{
		"City": "Arutua",
		"country": "French Polynesia",
		"META_IATA": "",
		"IATA": "AXR",
		"ICAO": "NTGU",
		"latitude": "-15.248299598693848",
		"longitude": "-146.61700439453125"
	},
	{
		"City": "Arvaikheer",
		"country": "Mongolia",
		"META_IATA": "",
		"IATA": "AVK",
		"ICAO": "ZMAH",
		"latitude": "46.250301361083984",
		"longitude": "102.802001953125"
	},
	{
		"City": "Arvidsjaur",
		"country": "Sweden",
		"META_IATA": "",
		"IATA": "AJR",
		"ICAO": "ESNX",
		"latitude": "65.59030151367188",
		"longitude": "19.28190040588379"
	},
	{
		"City": "Arvika",
		"country": "Sweden",
		"META_IATA": "",
		"IATA": "\\N",
		"ICAO": "ESKV",
		"latitude": "59.6759",
		"longitude": "12.6394"
	},
	{
		"City": "Arxan",
		"country": "China",
		"META_IATA": "",
		"IATA": "YIE",
		"ICAO": "ZBES",
		"latitude": "47.3106",
		"longitude": "119.9117"
	},
	{
		"City": "Arzana",
		"country": "United Arab Emirates",
		"META_IATA": "",
		"IATA": "\\N",
		"ICAO": "OMAR",
		"latitude": "24.780500411987305",
		"longitude": "52.559898376464844"
	},
	{
		"City": "Asaba",
		"country": "Nigeria",
		"META_IATA": "",
		"IATA": "ABB",
		"ICAO": "DNAS",
		"latitude": "6.204167",
		"longitude": "6.665278"
	},
	{
		"City": "Asahikawa",
		"country": "Japan",
		"META_IATA": "",
		"IATA": "AKJ",
		"ICAO": "RJEC",
		"latitude": "43.670799255371094",
		"longitude": "142.44700622558594"
	},
	{
		"City": "Aschaffenburg",
		"country": "Germany",
		"META_IATA": "",
		"IATA": "\\N",
		"ICAO": "EDFC",
		"latitude": "49.93888854980469",
		"longitude": "9.063888549804688"
	},
	{
		"City": "Asheboro",
		"country": "United States",
		"META_IATA": "",
		"IATA": "\\N",
		"ICAO": "KHBI",
		"latitude": "35.65449905",
		"longitude": "-79.8946991"
	},
	{
		"City": "Asheville",
		"country": "United States",
		"META_IATA": "",
		"IATA": "AVL",
		"ICAO": "KAVL",
		"latitude": "35.43619918823242",
		"longitude": "-82.54180145263672"
	},
	{
		"City": "Ashiya",
		"country": "Japan",
		"META_IATA": "",
		"IATA": "\\N",
		"ICAO": "RJFA",
		"latitude": "33.88309860229492",
		"longitude": "130.6529998779297"
	},
	{
		"City": "Ashkhabad",
		"country": "Turkmenistan",
		"META_IATA": "",
		"IATA": "ASB",
		"ICAO": "UTAA",
		"latitude": "37.986801",
		"longitude": "58.361"
	},
	{
		"City": "Asmara",
		"country": "Eritrea",
		"META_IATA": "",
		"IATA": "ASM",
		"ICAO": "HHAS",
		"latitude": "15.291899681091309",
		"longitude": "38.910701751708984"
	},
	{
		"City": "Asosa",
		"country": "Ethiopia",
		"META_IATA": "",
		"IATA": "ASO",
		"ICAO": "HASO",
		"latitude": "10.018500328063965",
		"longitude": "34.586299896240234"
	},
	{
		"City": "Aspen",
		"country": "United States",
		"META_IATA": "",
		"IATA": "ASE",
		"ICAO": "KASE",
		"latitude": "39.22320175",
		"longitude": "-106.8690033"
	},
	{
		"City": "Assab",
		"country": "Eritrea",
		"META_IATA": "",
		"IATA": "ASA",
		"ICAO": "HHSB",
		"latitude": "13.071800231933594",
		"longitude": "42.64500045776367"
	},
	{
		"City": "Assumption Island",
		"country": "Seychelles",
		"META_IATA": "",
		"IATA": "\\N",
		"ICAO": "FSAS",
		"latitude": "-9.7422199993",
		"longitude": "46.506802"
	},
	{
		"City": "Astoria",
		"country": "United States",
		"META_IATA": "",
		"IATA": "AST",
		"ICAO": "KAST",
		"latitude": "46.158000946",
		"longitude": "-123.878997803"
	},
	{
		"City": "Astrakhan",
		"country": "Russia",
		"META_IATA": "",
		"IATA": "ASF",
		"ICAO": "URWA",
		"latitude": "46.2832984924",
		"longitude": "48.0063018799"
	},
	{
		"City": "Astrakhan",
		"country": "Russia",
		"META_IATA": "",
		"IATA": "\\N",
		"ICAO": "XRAP",
		"latitude": "46.396",
		"longitude": "47.893"
	},
	{
		"City": "Astypalaia",
		"country": "Greece",
		"META_IATA": "",
		"IATA": "JTY",
		"ICAO": "LGPL",
		"latitude": "36.5798988342",
		"longitude": "26.3757991791"
	},
	{
		"City": "Asuncion",
		"country": "Paraguay",
		"META_IATA": "",
		"IATA": "ASU",
		"ICAO": "SGAS",
		"latitude": "-25.239999771118164",
		"longitude": "-57.52000045776367"
	},
	{
		"City": "Aswan",
		"country": "Egypt",
		"META_IATA": "",
		"IATA": "ASW",
		"ICAO": "HESN",
		"latitude": "23.9643993378",
		"longitude": "32.8199996948"
	},
	{
		"City": "Asyut",
		"country": "Egypt",
		"META_IATA": "",
		"IATA": "ATZ",
		"ICAO": "HEAT",
		"latitude": "27.0464992523",
		"longitude": "31.0119991302"
	},
	{
		"City": "Atalaya",
		"country": "Peru",
		"META_IATA": "",
		"IATA": "\\N",
		"ICAO": "SPAY",
		"latitude": "-10.7291002274",
		"longitude": "-73.7665023804"
	},
	{
		"City": "Ataq",
		"country": "Yemen",
		"META_IATA": "",
		"IATA": "AXK",
		"ICAO": "OYAT",
		"latitude": "14.551300048828125",
		"longitude": "46.82619857788086"
	},
	{
		"City": "Atar",
		"country": "Mauritania",
		"META_IATA": "",
		"IATA": "ATR",
		"ICAO": "GQPA",
		"latitude": "20.506799697875977",
		"longitude": "-13.04319953918457"
	},
	{
		"City": "Atbara",
		"country": "Sudan",
		"META_IATA": "",
		"IATA": "ATB",
		"ICAO": "HSAT",
		"latitude": "17.710344314575195",
		"longitude": "34.0570182800293"
	},
	{
		"City": "Athens",
		"country": "Greece",
		"META_IATA": "",
		"IATA": "ATH",
		"ICAO": "LGAV",
		"latitude": "37.9364013672",
		"longitude": "23.9444999695"
	},
	{
		"City": "Athens",
		"country": "Greece",
		"META_IATA": "",
		"IATA": "HEW",
		"ICAO": "LGAT",
		"latitude": "37.893299",
		"longitude": "23.726101"
	},
	{
		"City": "Athens",
		"country": "United States",
		"META_IATA": "",
		"IATA": "AHN",
		"ICAO": "KAHN",
		"latitude": "33.94860076904297",
		"longitude": "-83.32630157470703"
	},
	{
		"City": "Athens",
		"country": "United States",
		"META_IATA": "",
		"IATA": "ATO",
		"ICAO": "KUNI",
		"latitude": "39.2109985352",
		"longitude": "-82.23139953610001"
	},
	{
		"City": "Athens",
		"country": "United States",
		"META_IATA": "",
		"IATA": "MMI",
		"ICAO": "KMMI",
		"latitude": "35.39730072",
		"longitude": "-84.56259918"
	},
	{
		"City": "Atherton",
		"country": "Australia",
		"META_IATA": "",
		"IATA": "\\N",
		"ICAO": "YATN",
		"latitude": "-17.2616996765",
		"longitude": "145.51499939"
	},
	{
		"City": "Atikokan",
		"country": "Canada",
		"META_IATA": "",
		"IATA": "YIB",
		"ICAO": "CYIB",
		"latitude": "48.7738990784",
		"longitude": "-91.6386032104"
	},
	{
		"City": "Atiu Island",
		"country": "Cook Islands",
		"META_IATA": "",
		"IATA": "AIU",
		"ICAO": "NCAT",
		"latitude": "-19.96780014038086",
		"longitude": "-158.11900329589844"
	},
	{
		"City": "Atka",
		"country": "United States",
		"META_IATA": "",
		"IATA": "AKB",
		"ICAO": "PAAK",
		"latitude": "52.22029877",
		"longitude": "-174.2059937"
	},
	{
		"City": "Atlanta",
		"country": "United States",
		"META_IATA": "",
		"IATA": "ATL",
		"ICAO": "KATL",
		"latitude": "33.6367",
		"longitude": "-84.428101"
	},
	{
		"City": "Atlanta",
		"country": "United States",
		"META_IATA": "",
		"IATA": "FTY",
		"ICAO": "KFTY",
		"latitude": "33.7790985107",
		"longitude": "-84.5214004517"
	},
	{
		"City": "Atlanta",
		"country": "United States",
		"META_IATA": "",
		"IATA": "PDK",
		"ICAO": "KPDK",
		"latitude": "33.8755989075",
		"longitude": "-84.3020019531"
	},
	{
		"City": "Atlanta",
		"country": "United States",
		"META_IATA": "",
		"IATA": "\\N",
		"ICAO": "KRYY",
		"latitude": "34.01319885",
		"longitude": "-84.59860229"
	},
	{
		"City": "Atlanta",
		"country": "United States",
		"META_IATA": "",
		"IATA": "\\N",
		"ICAO": "KFFC",
		"latitude": "33.3572998046875",
		"longitude": "-84.5718002319336"
	},
	{
		"City": "Atlantic City",
		"country": "United States",
		"META_IATA": "",
		"IATA": "ACY",
		"ICAO": "KACY",
		"latitude": "39.45759963989258",
		"longitude": "-74.57720184326172"
	},
	{
		"City": "Atoifi",
		"country": "Solomon Islands",
		"META_IATA": "",
		"IATA": "ATD",
		"ICAO": "AGAT",
		"latitude": "-8.87333",
		"longitude": "161.011002"
	},
	{
		"City": "Atqasuk",
		"country": "United States",
		"META_IATA": "",
		"IATA": "ATK",
		"ICAO": "PATQ",
		"latitude": "70.46730041503906",
		"longitude": "-157.43600463867188"
	},
	{
		"City": "Atsugi",
		"country": "Japan",
		"META_IATA": "",
		"IATA": "NJA",
		"ICAO": "RJTA",
		"latitude": "35.4546012878418",
		"longitude": "139.4499969482422"
	},
	{
		"City": "Attawapiskat",
		"country": "Canada",
		"META_IATA": "",
		"IATA": "YAT",
		"ICAO": "CYAT",
		"latitude": "52.9275016784668",
		"longitude": "-82.43190002441406"
	},
	{
		"City": "Attopeu",
		"country": "Laos",
		"META_IATA": "",
		"IATA": "AOU",
		"ICAO": "VLAP",
		"latitude": "14.814715357",
		"longitude": "106.821699142"
	},
	{
		"City": "Attu",
		"country": "Greenland",
		"META_IATA": "",
		"IATA": "QGQ",
		"ICAO": "BGAT",
		"latitude": "67.9406628551",
		"longitude": "-53.6218696833"
	},
	{
		"City": "Atyrau",
		"country": "Kazakhstan",
		"META_IATA": "",
		"IATA": "GUW",
		"ICAO": "UATG",
		"latitude": "47.12189865112305",
		"longitude": "51.8213996887207"
	},
	{
		"City": "Aubenas-vals-lanas",
		"country": "France",
		"META_IATA": "",
		"IATA": "OBS",
		"ICAO": "LFHO",
		"latitude": "44.544203",
		"longitude": "4.372192"
	},
	{
		"City": "Aubigny-sur-nere",
		"country": "France",
		"META_IATA": "",
		"IATA": "\\N",
		"ICAO": "LFEH",
		"latitude": "47.480556",
		"longitude": "2.394167"
	},
	{
		"City": "Auburn",
		"country": "United States",
		"META_IATA": "",
		"IATA": "AUO",
		"ICAO": "KAUO",
		"latitude": "32.615101",
		"longitude": "-85.433998"
	},
	{
		"City": "Auch",
		"country": "France",
		"META_IATA": "",
		"IATA": "\\N",
		"ICAO": "LFDH",
		"latitude": "43.687801",
		"longitude": "0.601667"
	},
	{
		"City": "Auckland",
		"country": "New Zealand",
		"META_IATA": "",
		"IATA": "AKL",
		"ICAO": "NZAA",
		"latitude": "-37.008098602299995",
		"longitude": "174.792007446"
	},
	{
		"City": "Augsburg",
		"country": "Germany",
		"META_IATA": "",
		"IATA": "AGB",
		"ICAO": "EDMA",
		"latitude": "48.425278",
		"longitude": "10.931667"
	},
	{
		"City": "Augusta",
		"country": "United States",
		"META_IATA": "",
		"IATA": "AUG",
		"ICAO": "KAUG",
		"latitude": "44.320598602299995",
		"longitude": "-69.7973022461"
	},
	{
		"City": "Augusta",
		"country": "United States",
		"META_IATA": "",
		"IATA": "DNL",
		"ICAO": "KDNL",
		"latitude": "33.4664993286",
		"longitude": "-82.0393981934"
	},
	{
		"City": "Augusta",
		"country": "United States",
		"META_IATA": "",
		"IATA": "\\N",
		"ICAO": "K3AU",
		"latitude": "37.671600341796875",
		"longitude": "-97.0779037475586"
	},
	{
		"City": "Auki",
		"country": "Solomon Islands",
		"META_IATA": "",
		"IATA": "AKS",
		"ICAO": "AGGA",
		"latitude": "-8.70257",
		"longitude": "160.682007"
	},
	{
		"City": "Aupaluk",
		"country": "Canada",
		"META_IATA": "",
		"IATA": "YPJ",
		"ICAO": "CYLA",
		"latitude": "59.29669952392578",
		"longitude": "-69.59970092773438"
	},
	{
		"City": "Aurangabad",
		"country": "India",
		"META_IATA": "",
		"IATA": "IXU",
		"ICAO": "VAAU",
		"latitude": "19.862699508666992",
		"longitude": "75.39810180664062"
	},
	{
		"City": "Aurillac",
		"country": "France",
		"META_IATA": "",
		"IATA": "AUR",
		"ICAO": "LFLW",
		"latitude": "44.89139938354492",
		"longitude": "2.4219400882720947"
	},
	{
		"City": "Aurora",
		"country": "United States",
		"META_IATA": "",
		"IATA": "\\N",
		"ICAO": "KUAO",
		"latitude": "45.247100830078125",
		"longitude": "-122.7699966430664"
	},
	{
		"City": "Aurukun",
		"country": "Australia",
		"META_IATA": "",
		"IATA": "AUU",
		"ICAO": "YAUR",
		"latitude": "-13.354067",
		"longitude": "141.72065"
	},
	{
		"City": "Austin",
		"country": "United States",
		"META_IATA": "",
		"IATA": "AUS",
		"ICAO": "KAUS",
		"latitude": "30.194499969482422",
		"longitude": "-97.6698989868164"
	},
	{
		"City": "Austin",
		"country": "United States",
		"META_IATA": "",
		"IATA": "\\N",
		"ICAO": "KEDC",
		"latitude": "30.3974931",
		"longitude": "-97.5663935"
	},
	{
		"City": "Autun",
		"country": "France",
		"META_IATA": "",
		"IATA": "\\N",
		"ICAO": "LFQF",
		"latitude": "46.96730041503906",
		"longitude": "4.260570049285889"
	},
	{
		"City": "Auxerre",
		"country": "France",
		"META_IATA": "",
		"IATA": "AUF",
		"ICAO": "LFLA",
		"latitude": "47.85020065307617",
		"longitude": "3.497109889984131"
	},
	{
		"City": "Avalon",
		"country": "Australia",
		"META_IATA": "",
		"IATA": "AVV",
		"ICAO": "YMAV",
		"latitude": "-38.039398",
		"longitude": "144.468994"
	},
	{
		"City": "Avarua",
		"country": "Cook Islands",
		"META_IATA": "",
		"IATA": "RAR",
		"ICAO": "NCRG",
		"latitude": "-21.2026996613",
		"longitude": "-159.805999756"
	},
	{
		"City": "Aveiro",
		"country": "Portugal",
		"META_IATA": "",
		"IATA": "\\N",
		"ICAO": "LPAV",
		"latitude": "40.656741",
		"longitude": "-8.741544"
	},
	{
		"City": "Aviano",
		"country": "Italy",
		"META_IATA": "",
		"IATA": "AVB",
		"ICAO": "LIPA",
		"latitude": "46.031898",
		"longitude": "12.596503"
	},
	{
		"City": "Avignon",
		"country": "France",
		"META_IATA": "",
		"IATA": "AVN",
		"ICAO": "LFMV",
		"latitude": "43.90729904174805",
		"longitude": "4.901830196380615"
	},
	{
		"City": "Aviles",
		"country": "Spain",
		"META_IATA": "",
		"IATA": "OVD",
		"ICAO": "LEAS",
		"latitude": "43.5635986328125",
		"longitude": "-6.0346198081970215"
	},
	{
		"City": "Avon Park",
		"country": "United States",
		"META_IATA": "",
		"IATA": "AVO",
		"ICAO": "KAVO",
		"latitude": "27.59119987",
		"longitude": "-81.52780151"
	},
	{
		"City": "Avord",
		"country": "France",
		"META_IATA": "",
		"IATA": "\\N",
		"ICAO": "LFOA",
		"latitude": "47.053299",
		"longitude": "2.6325"
	},
	{
		"City": "Awasa",
		"country": "Ethiopia",
		"META_IATA": "",
		"IATA": "AWA",
		"ICAO": "HALA",
		"latitude": "7.066999912261963",
		"longitude": "38.5"
	},
	{
		"City": "Aweil",
		"country": "Sudan",
		"META_IATA": "",
		"IATA": "\\N",
		"ICAO": "HSAW",
		"latitude": "8.767000198364258",
		"longitude": "27.399999618530273"
	},
	{
		"City": "Axum",
		"country": "Ethiopia",
		"META_IATA": "",
		"IATA": "AXU",
		"ICAO": "HAAX",
		"latitude": "14.14680004119873",
		"longitude": "38.77280044555664"
	},
	{
		"City": "Ayacucho",
		"country": "Peru",
		"META_IATA": "",
		"IATA": "AYP",
		"ICAO": "SPHO",
		"latitude": "-13.154800415039062",
		"longitude": "-74.20439910888672"
	},
	{
		"City": "Ayaguz",
		"country": "Kazakhstan",
		"META_IATA": "",
		"IATA": "\\N",
		"ICAO": "UASA",
		"latitude": "47.91859817504883",
		"longitude": "80.45279693603516"
	},
	{
		"City": "Ayawasi",
		"country": "Indonesia",
		"META_IATA": "",
		"IATA": "AYW",
		"ICAO": "WASA",
		"latitude": "-1.1593",
		"longitude": "132.4633"
	},
	{
		"City": "Aykhal",
		"country": "Russia",
		"META_IATA": "",
		"IATA": "\\N",
		"ICAO": "UERA",
		"latitude": "65.959197998047",
		"longitude": "111.54650115967"
	},
	{
		"City": "Ayolas",
		"country": "Paraguay",
		"META_IATA": "",
		"IATA": "AYO",
		"ICAO": "SGAY",
		"latitude": "-27.370554",
		"longitude": "-56.854064"
	},
	{
		"City": "Azentkilyszabadja",
		"country": "Hungary",
		"META_IATA": "",
		"IATA": "\\N",
		"ICAO": "LHSA",
		"latitude": "47.07789993286133",
		"longitude": "17.968399047851562"
	},
	{
		"City": "AZRAQ",
		"country": "Jordan",
		"META_IATA": "",
		"IATA": "\\N",
		"ICAO": "OJ40",
		"latitude": "31.8255996704",
		"longitude": "36.782001495399996"
	},
	{
		"City": "Babelthuap",
		"country": "Palau",
		"META_IATA": "",
		"IATA": "ROR",
		"ICAO": "PTRO",
		"latitude": "7.36731",
		"longitude": "134.544236"
	},
	{
		"City": "Babo",
		"country": "Indonesia",
		"META_IATA": "",
		"IATA": "BXB",
		"ICAO": "WASO",
		"latitude": "-2.5322399139404297",
		"longitude": "133.43899536132812"
	},
	{
		"City": "Babruisk",
		"country": "Belarus",
		"META_IATA": "",
		"IATA": "\\N",
		"ICAO": "UMNB",
		"latitude": "53.105",
		"longitude": "29.205"
	},
	{
		"City": "Bacau",
		"country": "Romania",
		"META_IATA": "",
		"IATA": "BCM",
		"ICAO": "LRBC",
		"latitude": "46.52190017700195",
		"longitude": "26.91029930114746"
	},
	{
		"City": "Baco",
		"country": "Ethiopia",
		"META_IATA": "",
		"IATA": "BCO",
		"ICAO": "HABC",
		"latitude": "5.78287",
		"longitude": "36.562"
	},
	{
		"City": "Bacolod",
		"country": "Philippines",
		"META_IATA": "",
		"IATA": "BCD",
		"ICAO": "RPVB",
		"latitude": "10.7764",
		"longitude": "123.014999"
	},
	{
		"City": "Bad Duerkheim",
		"country": "Germany",
		"META_IATA": "",
		"IATA": "\\N",
		"ICAO": "EDRF",
		"latitude": "49.47305679321289",
		"longitude": "8.196389198303223"
	},
	{
		"City": "Bad Neuenahr",
		"country": "Germany",
		"META_IATA": "",
		"IATA": "\\N",
		"ICAO": "EDRA",
		"latitude": "50.557777",
		"longitude": "7.136389"
	},
	{
		"City": "Bad Oeynhausen",
		"country": "Germany",
		"META_IATA": "",
		"IATA": "\\N",
		"ICAO": "EDVY",
		"latitude": "52.22083282470703",
		"longitude": "8.859167098999023"
	},
	{
		"City": "Bad Pyrmont",
		"country": "Germany",
		"META_IATA": "",
		"IATA": "\\N",
		"ICAO": "EDVW",
		"latitude": "51.96666717529297",
		"longitude": "9.291666984558105"
	},
	{
		"City": "Bad Voeslau",
		"country": "Austria",
		"META_IATA": "",
		"IATA": "\\N",
		"ICAO": "LOAV",
		"latitude": "47.96500015258789",
		"longitude": "16.260000228881836"
	},
	{
		"City": "Badajoz",
		"country": "Spain",
		"META_IATA": "",
		"IATA": "BJZ",
		"ICAO": "LEBZ",
		"latitude": "38.891300201416016",
		"longitude": "-6.8213300704956055"
	},
	{
		"City": "Badu Island",
		"country": "Australia",
		"META_IATA": "",
		"IATA": "BDD",
		"ICAO": "YBAU",
		"latitude": "-10.149999618499999",
		"longitude": "142.1734"
	},
	{
		"City": "Bafoussam",
		"country": "Cameroon",
		"META_IATA": "",
		"IATA": "BFX",
		"ICAO": "FKKU",
		"latitude": "5.536920070650001",
		"longitude": "10.354599952700001"
	},
	{
		"City": "Bagabag",
		"country": "Philippines",
		"META_IATA": "",
		"IATA": "\\N",
		"ICAO": "RPUZ",
		"latitude": "16.6192",
		"longitude": "121.251999"
	},
	{
		"City": "Bagan",
		"country": "Burma",
		"META_IATA": "",
		"IATA": "NYU",
		"ICAO": "VYBG",
		"latitude": "21.178800582885742",
		"longitude": "94.9301986694336"
	},
	{
		"City": "Bagan",
		"country": "Burma",
		"META_IATA": "",
		"IATA": "BPE",
		"ICAO": "ZBDH",
		"latitude": "39.666389",
		"longitude": "119.058889"
	},
	{
		"City": "Bagdarin",
		"country": "Russia",
		"META_IATA": "",
		"IATA": "\\N",
		"ICAO": "UIUB",
		"latitude": "54.36920166015625",
		"longitude": "113.47899627685547"
	},
	{
		"City": "Bage",
		"country": "Brazil",
		"META_IATA": "",
		"IATA": "BGX",
		"ICAO": "SBBG",
		"latitude": "-31.39049911499",
		"longitude": "-54.112201690674"
	},
	{
		"City": "Baghdad",
		"country": "Iraq",
		"META_IATA": "",
		"IATA": "BGW",
		"ICAO": "ORBI",
		"latitude": "33.262500762900004",
		"longitude": "44.2346000671"
	},
	{
		"City": "Baghdogra",
		"country": "India",
		"META_IATA": "",
		"IATA": "IXB",
		"ICAO": "VEBD",
		"latitude": "26.68120002746582",
		"longitude": "88.32859802246094"
	},
	{
		"City": "Baglung",
		"country": "Nepal",
		"META_IATA": "",
		"IATA": "BGL",
		"ICAO": "VNBL",
		"latitude": "28.212799072265625",
		"longitude": "83.66629791259766"
	},
	{
		"City": "Bagnole-de-l'orne",
		"country": "France",
		"META_IATA": "",
		"IATA": "\\N",
		"ICAO": "LFAO",
		"latitude": "48.545799255371094",
		"longitude": "0.38744398951530457"
	},
	{
		"City": "Bagotville",
		"country": "Canada",
		"META_IATA": "",
		"IATA": "YBG",
		"ICAO": "CYBG",
		"latitude": "48.33060073852539",
		"longitude": "-70.99639892578125"
	},
	{
		"City": "Baguio",
		"country": "Philippines",
		"META_IATA": "",
		"IATA": "BAG",
		"ICAO": "RPUB",
		"latitude": "16.375099182128906",
		"longitude": "120.62000274658203"
	},
	{
		"City": "Bahar Dar",
		"country": "Ethiopia",
		"META_IATA": "",
		"IATA": "BJR",
		"ICAO": "HABD",
		"latitude": "11.608099937438965",
		"longitude": "37.32160186767578"
	},
	{
		"City": "Bahawalpur",
		"country": "Pakistan",
		"META_IATA": "",
		"IATA": "BHV",
		"ICAO": "OPBW",
		"latitude": "29.348100662231445",
		"longitude": "71.71800231933594"
	},
	{
		"City": "Bahia Blanca",
		"country": "Argentina",
		"META_IATA": "",
		"IATA": "BHI",
		"ICAO": "SAZB",
		"latitude": "-38.725",
		"longitude": "-62.1693"
	},
	{
		"City": "Bahia Solano",
		"country": "Colombia",
		"META_IATA": "",
		"IATA": "BSC",
		"ICAO": "SKBS",
		"latitude": "6.20292",
		"longitude": "-77.3947"
	},
	{
		"City": "Bahrain",
		"country": "Bahrain",
		"META_IATA": "",
		"IATA": "BAH",
		"ICAO": "OBBI",
		"latitude": "26.27079963684082",
		"longitude": "50.63359832763672"
	},
	{
		"City": "Bahrain",
		"country": "Bahrain",
		"META_IATA": "",
		"IATA": "\\N",
		"ICAO": "OBBS",
		"latitude": "25.918399810791016",
		"longitude": "50.590599060058594"
	},
	{
		"City": "Baia Mare",
		"country": "Romania",
		"META_IATA": "",
		"IATA": "BAY",
		"ICAO": "LRBM",
		"latitude": "47.65840148925781",
		"longitude": "23.469999313354492"
	},
	{
		"City": "Baicheng",
		"country": "China",
		"META_IATA": "",
		"IATA": "DBC",
		"ICAO": "ZYBA",
		"latitude": "45.505278",
		"longitude": "123.019722"
	},
	{
		"City": "Baidoa",
		"country": "Somalia",
		"META_IATA": "",
		"IATA": "BIB",
		"ICAO": "HCMB",
		"latitude": "3.102220058441162",
		"longitude": "43.62860107421875"
	},
	{
		"City": "Baie Comeau",
		"country": "Canada",
		"META_IATA": "",
		"IATA": "YBC",
		"ICAO": "CYBC",
		"latitude": "49.13249969482422",
		"longitude": "-68.20439910888672"
	},
	{
		"City": "Baikonur",
		"country": "Kazakhstan",
		"META_IATA": "",
		"IATA": "BXY",
		"ICAO": "UAOL",
		"latitude": "45.621994",
		"longitude": "63.210773"
	},
	{
		"City": "Baikonur",
		"country": "Kazakhstan",
		"META_IATA": "",
		"IATA": "\\N",
		"ICAO": "UAON",
		"latitude": "46.05500030517578",
		"longitude": "63.25"
	},
	{
		"City": "Baimuru",
		"country": "Papua New Guinea",
		"META_IATA": "",
		"IATA": "VMU",
		"ICAO": "AYBA",
		"latitude": "-7.49686002731",
		"longitude": "144.819900513"
	},
	{
		"City": "Bainbridge",
		"country": "United States",
		"META_IATA": "",
		"IATA": "BGE",
		"ICAO": "KBGE",
		"latitude": "30.9715004",
		"longitude": "-84.63739777"
	},
	{
		"City": "Bairnsdale",
		"country": "Australia",
		"META_IATA": "",
		"IATA": "BSJ",
		"ICAO": "YBNS",
		"latitude": "-37.88750076293945",
		"longitude": "147.5679931640625"
	},
	{
		"City": "Baise",
		"country": "China",
		"META_IATA": "",
		"IATA": "AEB",
		"ICAO": "ZGBS",
		"latitude": "23.7206001282",
		"longitude": "106.959999084"
	},
	{
		"City": "Baishan",
		"country": "China",
		"META_IATA": "",
		"IATA": "NBS",
		"ICAO": "ZYBS",
		"latitude": "42.066944",
		"longitude": "127.602222"
	},
	{
		"City": "Bajawa",
		"country": "Indonesia",
		"META_IATA": "",
		"IATA": "BJW",
		"ICAO": "WATB",
		"latitude": "-8.70743498008",
		"longitude": "121.057426929"
	},
	{
		"City": "Bajhang",
		"country": "Nepal",
		"META_IATA": "",
		"IATA": "BJH",
		"ICAO": "VNBG",
		"latitude": "29.538999557495117",
		"longitude": "81.1854019165039"
	},
	{
		"City": "Bajura",
		"country": "Nepal",
		"META_IATA": "",
		"IATA": "BJU",
		"ICAO": "VNBR",
		"latitude": "29.50200080871582",
		"longitude": "81.66899871826172"
	},
	{
		"City": "Bakalalan",
		"country": "Malaysia",
		"META_IATA": "",
		"IATA": "BKM",
		"ICAO": "WBGQ",
		"latitude": "3.9739999771118164",
		"longitude": "115.61799621582031"
	},
	{
		"City": "Bakel",
		"country": "Senegal",
		"META_IATA": "",
		"IATA": "BXE",
		"ICAO": "GOTB",
		"latitude": "14.847299575805664",
		"longitude": "-12.468299865722656"
	},
	{
		"City": "Baker City",
		"country": "United States",
		"META_IATA": "",
		"IATA": "BKE",
		"ICAO": "KBKE",
		"latitude": "44.837299346900004",
		"longitude": "-117.808998108"
	},
	{
		"City": "Baker Lake",
		"country": "Canada",
		"META_IATA": "",
		"IATA": "YBK",
		"ICAO": "CYBK",
		"latitude": "64.29889678960001",
		"longitude": "-96.077796936"
	},
	{
		"City": "Bakersfield",
		"country": "United States",
		"META_IATA": "",
		"IATA": "BFL",
		"ICAO": "KBFL",
		"latitude": "35.43360138",
		"longitude": "-119.0569992"
	},
	{
		"City": "Bakhtaran",
		"country": "Iran",
		"META_IATA": "",
		"IATA": "KSH",
		"ICAO": "OICC",
		"latitude": "34.3459014893",
		"longitude": "47.1581001282"
	},
	{
		"City": "Bakki",
		"country": "Iceland",
		"META_IATA": "",
		"IATA": "\\N",
		"ICAO": "BIBA",
		"latitude": "63.55609893798828",
		"longitude": "-20.137500762939453"
	},
	{
		"City": "Bakshi Ka Talab",
		"country": "India",
		"META_IATA": "",
		"IATA": "\\N",
		"ICAO": "VIBL",
		"latitude": "26.988300323486328",
		"longitude": "80.89309692382812"
	},
	{
		"City": "Baku",
		"country": "Azerbaijan",
		"META_IATA": "",
		"IATA": "GYD",
		"ICAO": "UBBB",
		"latitude": "40.467498779296875",
		"longitude": "50.04669952392578"
	},
	{
		"City": "Baku",
		"country": "Azerbaijan",
		"META_IATA": "",
		"IATA": "ZXT",
		"ICAO": "UBTT",
		"latitude": "40.4955422161",
		"longitude": "49.9768066406"
	},
	{
		"City": "Balabanovo",
		"country": "Russia",
		"META_IATA": "",
		"IATA": "\\N",
		"ICAO": "UUWE",
		"latitude": "55.2283325195",
		"longitude": "36.6083335876"
	},
	{
		"City": "Balakovo",
		"country": "Russia",
		"META_IATA": "",
		"IATA": "BWO",
		"ICAO": "UWSB",
		"latitude": "51.8582992554",
		"longitude": "47.7456016541"
	},
	{
		"City": "Balchik",
		"country": "Bulgaria",
		"META_IATA": "",
		"IATA": "\\N",
		"ICAO": "LBWB",
		"latitude": "43.42380142211914",
		"longitude": "28.181299209594727"
	},
	{
		"City": "Baler",
		"country": "Philippines",
		"META_IATA": "",
		"IATA": "BQA",
		"ICAO": "RPUR",
		"latitude": "15.729309",
		"longitude": "121.500034"
	},
	{
		"City": "Balikesir",
		"country": "Turkey",
		"META_IATA": "",
		"IATA": "BZI",
		"ICAO": "LTBF",
		"latitude": "39.619300842285156",
		"longitude": "27.926000595092773"
	},
	{
		"City": "Balikesir Korfez",
		"country": "Turkey",
		"META_IATA": "",
		"IATA": "EDO",
		"ICAO": "LTFD",
		"latitude": "39.554599762",
		"longitude": "27.0137996674"
	},
	{
		"City": "Balikpapan",
		"country": "Indonesia",
		"META_IATA": "",
		"IATA": "BPN",
		"ICAO": "WALL",
		"latitude": "-1.26827001572",
		"longitude": "116.893997192"
	},
	{
		"City": "Balimo",
		"country": "Papua New Guinea",
		"META_IATA": "",
		"IATA": "OPU",
		"ICAO": "AYBM",
		"latitude": "-8.05000019073",
		"longitude": "142.932998657"
	},
	{
		"City": "Balkhash",
		"country": "Kazakhstan",
		"META_IATA": "",
		"IATA": "BXH",
		"ICAO": "UAAH",
		"latitude": "46.8932991027832",
		"longitude": "75.00499725341797"
	},
	{
		"City": "Ballalae",
		"country": "Solomon Islands",
		"META_IATA": "",
		"IATA": "BAS",
		"ICAO": "AGGE",
		"latitude": "-6.990745",
		"longitude": "155.886656"
	},
	{
		"City": "Ballarat",
		"country": "Australia",
		"META_IATA": "",
		"IATA": "\\N",
		"ICAO": "YBLT",
		"latitude": "-37.51169967651367",
		"longitude": "143.79100036621094"
	},
	{
		"City": "Ballenstedt",
		"country": "Germany",
		"META_IATA": "",
		"IATA": "\\N",
		"ICAO": "EDCB",
		"latitude": "51.745834",
		"longitude": "11.229722"
	},
	{
		"City": "Ballera",
		"country": "Australia",
		"META_IATA": "",
		"IATA": "BBL",
		"ICAO": "YLLE",
		"latitude": "-27.405633",
		"longitude": "141.809458"
	},
	{
		"City": "Ballina Byron Bay",
		"country": "Australia",
		"META_IATA": "",
		"IATA": "BNK",
		"ICAO": "YBNA",
		"latitude": "-28.8339004517",
		"longitude": "153.56199646"
	},
	{
		"City": "Ballston Spa",
		"country": "United States",
		"META_IATA": "",
		"IATA": "\\N",
		"ICAO": "K5B2",
		"latitude": "43.05130005",
		"longitude": "-73.86119843"
	},
	{
		"City": "Balmaceda",
		"country": "Chile",
		"META_IATA": "",
		"IATA": "BBA",
		"ICAO": "SCBA",
		"latitude": "-45.916099548339844",
		"longitude": "-71.68949890136719"
	},
	{
		"City": "Baltimore",
		"country": "United States",
		"META_IATA": "",
		"IATA": "BWI",
		"ICAO": "KBWI",
		"latitude": "39.1754",
		"longitude": "-76.668297"
	},
	{
		"City": "Baltimore",
		"country": "United States",
		"META_IATA": "",
		"IATA": "MTN",
		"ICAO": "KMTN",
		"latitude": "39.325699",
		"longitude": "-76.413803"
	},
	{
		"City": "Baltrum",
		"country": "Germany",
		"META_IATA": "",
		"IATA": "BMR",
		"ICAO": "EDWZ",
		"latitude": "53.72472381591797",
		"longitude": "7.373332977294922"
	},
	{
		"City": "Balzers",
		"country": "Switzerland",
		"META_IATA": "",
		"IATA": "\\N",
		"ICAO": "LSXB",
		"latitude": "47.0681",
		"longitude": "9.48111"
	},
	{
		"City": "Bam",
		"country": "Iran",
		"META_IATA": "",
		"IATA": "BXR",
		"ICAO": "OIKM",
		"latitude": "29.084199905395508",
		"longitude": "58.45000076293945"
	},
	{
		"City": "Bamako",
		"country": "Mali",
		"META_IATA": "",
		"IATA": "BKO",
		"ICAO": "GABS",
		"latitude": "12.5335",
		"longitude": "-7.94994"
	},
	{
		"City": "Bamberg",
		"country": "Germany",
		"META_IATA": "",
		"IATA": "\\N",
		"ICAO": "EDQA",
		"latitude": "49.920403",
		"longitude": "10.914233"
	},
	{
		"City": "Bamburi",
		"country": "Kenya",
		"META_IATA": "",
		"IATA": "\\N",
		"ICAO": "KBMQ",
		"latitude": "30.73889923095703",
		"longitude": "-98.23860168457031"
	},
	{
		"City": "Bamenda",
		"country": "Cameroon",
		"META_IATA": "",
		"IATA": "BPC",
		"ICAO": "FKKV",
		"latitude": "6.039239883422852",
		"longitude": "10.122599601745605"
	},
	{
		"City": "Bamyan",
		"country": "Afghanistan",
		"META_IATA": "",
		"IATA": "BIN",
		"ICAO": "OABN",
		"latitude": "34.81700134277344",
		"longitude": "67.81700134277344"
	},
	{
		"City": "Bananera",
		"country": "Guatemala",
		"META_IATA": "",
		"IATA": "\\N",
		"ICAO": "MGBN",
		"latitude": "15.47350025177002",
		"longitude": "-88.83719635009766"
	},
	{
		"City": "Banda Aceh",
		"country": "Indonesia",
		"META_IATA": "",
		"IATA": "BTJ",
		"ICAO": "WITT",
		"latitude": "5.522872024010001",
		"longitude": "95.42063713070002"
	},
	{
		"City": "Bandar Abbas",
		"country": "Iran",
		"META_IATA": "",
		"IATA": "BND",
		"ICAO": "OIKB",
		"latitude": "27.218299865722656",
		"longitude": "56.37779998779297"
	},
	{
		"City": "Bandar Abbas",
		"country": "Iran",
		"META_IATA": "",
		"IATA": "HDR",
		"ICAO": "OIKP",
		"latitude": "27.158300399780273",
		"longitude": "56.17250061035156"
	},
	{
		"City": "Bandar Lampung-Sumatra Island",
		"country": "Indonesia",
		"META_IATA": "",
		"IATA": "TKG",
		"ICAO": "WIAT",
		"latitude": "-5.240556",
		"longitude": "105.175556"
	},
	{
		"City": "Bandar Lengeh",
		"country": "Iran",
		"META_IATA": "",
		"IATA": "BDH",
		"ICAO": "OIBL",
		"latitude": "26.531999588",
		"longitude": "54.824798584"
	},
	{
		"City": "Bandar Mahshahr",
		"country": "Iran",
		"META_IATA": "",
		"IATA": "MRX",
		"ICAO": "OIAM",
		"latitude": "30.55620002746582",
		"longitude": "49.15190124511719"
	},
	{
		"City": "Bandar Seri Begawan",
		"country": "Brunei",
		"META_IATA": "",
		"IATA": "BWN",
		"ICAO": "WBSB",
		"latitude": "4.944200038909912",
		"longitude": "114.9280014038086"
	},
	{
		"City": "Bandirma",
		"country": "Turkey",
		"META_IATA": "",
		"IATA": "BDM",
		"ICAO": "LTBG",
		"latitude": "40.31800079345703",
		"longitude": "27.977699279785156"
	},
	{
		"City": "Bandoundu",
		"country": "Congo (Kinshasa)",
		"META_IATA": "",
		"IATA": "FDU",
		"ICAO": "FZBO",
		"latitude": "-3.3113200664520264",
		"longitude": "17.38170051574707"
	},
	{
		"City": "Bandung",
		"country": "Indonesia",
		"META_IATA": "",
		"IATA": "BDO",
		"ICAO": "WICC",
		"latitude": "-6.900629997253418",
		"longitude": "107.57599639892578"
	},
	{
		"City": "Banff",
		"country": "Canada",
		"META_IATA": "",
		"IATA": "YBA",
		"ICAO": "CYBA",
		"latitude": "51.207340469900004",
		"longitude": "-115.541861057"
	},
	{
		"City": "Bangalore",
		"country": "India",
		"META_IATA": "",
		"IATA": "BLR",
		"ICAO": "VOBL",
		"latitude": "13.1979",
		"longitude": "77.706299"
	},
	{
		"City": "Bangalore",
		"country": "India",
		"META_IATA": "",
		"IATA": "\\N",
		"ICAO": "VOYK",
		"latitude": "13.135499954223633",
		"longitude": "77.60600280761719"
	},
	{
		"City": "Bangalore",
		"country": "India",
		"META_IATA": "",
		"IATA": "\\N",
		"ICAO": "VOBG",
		"latitude": "12.9499998093",
		"longitude": "77.6681976318"
	},
	{
		"City": "Bangda",
		"country": "China",
		"META_IATA": "",
		"IATA": "BPX",
		"ICAO": "ZUBD",
		"latitude": "30.553600311279297",
		"longitude": "97.1082992553711"
	},
	{
		"City": "Bangkok",
		"country": "Thailand",
		"META_IATA": "",
		"IATA": "DMK",
		"ICAO": "VTBD",
		"latitude": "13.9125995636",
		"longitude": "100.607002258"
	},
	{
		"City": "Bangkok",
		"country": "Thailand",
		"META_IATA": "",
		"IATA": "BKK",
		"ICAO": "VTBS",
		"latitude": "13.681099891662598",
		"longitude": "100.74700164794922"
	},
	{
		"City": "Bangor",
		"country": "United States",
		"META_IATA": "",
		"IATA": "BGR",
		"ICAO": "KBGR",
		"latitude": "44.80739974975586",
		"longitude": "-68.8281021118164"
	},
	{
		"City": "Bangui",
		"country": "Central African Republic",
		"META_IATA": "",
		"IATA": "BGF",
		"ICAO": "FEFF",
		"latitude": "4.39847993850708",
		"longitude": "18.518800735473633"
	},
	{
		"City": "Banja Luka",
		"country": "Bosnia and Herzegovina",
		"META_IATA": "",
		"IATA": "BNX",
		"ICAO": "LQBK",
		"latitude": "44.94139862060547",
		"longitude": "17.297500610351562"
	},